[{"datasetid": "neighbourhood-houses-greater-geelong", "recordid": "396c714b86c8fc6a6cc4a7aa378f5a36e494e038", "fields": {"name": "BELLARINE LIVING &LEARN CENTRE", "geo_point_2d": [-38.1785924109, 144.394810769], "long": "144.394810768858", "geo_shape": {"type": "Point", "coordinates": [144.39481076885767, -38.17859241094723]}, "lat": "-38.1785924109472", "cogg": "Y"}, "geometry": {"type": "Point", "coordinates": [144.394810769, -38.1785924109]}, "record_timestamp": "2019-09-11T13:11:22.133+10:00"},{"datasetid": "neighbourhood-houses-greater-geelong", "recordid": "4c5d1e6d72c30faccae1a7a5a5b20e770a1c76d0", "fields": {"name": "OCEAN GROVE N HOOD HOUSE", "geo_point_2d": [-38.2667989019, 144.525070181], "long": "144.525070180824", "geo_shape": {"type": "Point", "coordinates": [144.52507018082412, -38.26679890192896]}, "lat": "-38.266798901929", "cogg": "Y"}, "geometry": {"type": "Point", "coordinates": [144.525070181, -38.2667989019]}, "record_timestamp": "2019-09-11T13:11:22.133+10:00"},{"datasetid": "neighbourhood-houses-greater-geelong", "recordid": "baa5611de84a8f64984c03c43d554f3c1d1f1d8f", "fields": {"name": "PORTARLINGTON NEIGHBOURHOOD HOUSE", "geo_point_2d": [-38.1181205249, 144.653065831], "long": "144.653065831432", "geo_shape": {"type": "Point", "coordinates": [144.65306583143217, -38.118120524879664]}, "lat": "-38.1181205248797", "cogg": "N"}, "geometry": {"type": "Point", "coordinates": [144.653065831, -38.1181205249]}, "record_timestamp": "2019-09-11T13:11:22.133+10:00"},{"datasetid": "neighbourhood-houses-greater-geelong", "recordid": "71b92e10e8fa70c2f86412e429943653756add19", "fields": {"name": "CLOVERDALE COMM CENTRE / MCH", "geo_point_2d": [-38.0730051049, 144.34382312], "long": "144.343823119834", "geo_shape": {"type": "Point", "coordinates": [144.34382311983444, -38.073005104859234]}, "lat": "-38.0730051048592", "cogg": "Y"}, "geometry": {"type": "Point", "coordinates": [144.34382312, -38.0730051049]}, "record_timestamp": "2019-09-11T13:11:22.133+10:00"},{"datasetid": "neighbourhood-houses-greater-geelong", "recordid": "01c2a02cd54888d13268ba86f0e7c91af9b2bb40", "fields": {"name": "NORLANE NEIGHBOURHOOD HOUSE", "geo_point_2d": [-38.0888896718, 144.360634476], "long": "144.360634475684", "geo_shape": {"type": "Point", "coordinates": [144.36063447568418, -38.08888967181279]}, "lat": "-38.0888896718128", "cogg": "Y"}, "geometry": {"type": "Point", "coordinates": [144.360634476, -38.0888896718]}, "record_timestamp": "2019-09-11T13:11:22.133+10:00"},{"datasetid": "neighbourhood-houses-greater-geelong", "recordid": "c8ab6c1bd7f5122a4ddaa3ae435a3f55edb5985c", "fields": {"name": "ROSEWALL COMMUNITY CENTRE", "geo_point_2d": [-38.0646401025, 144.373157333], "long": "144.373157332801", "geo_shape": {"type": "Point", "coordinates": [144.37315733280062, -38.06464010249244]}, "lat": "-38.0646401024924", "cogg": "Y"}, "geometry": {"type": "Point", "coordinates": [144.373157333, -38.0646401025]}, "record_timestamp": "2019-09-11T13:11:22.133+10:00"},{"datasetid": "neighbourhood-houses-greater-geelong", "recordid": "b66b78eb17a4fc768130296eea4cc5385c5d09bc", "fields": {"name": "VIRGINIA TODD COMM /MCH", "geo_point_2d": [-38.1399536902, 144.347212167], "long": "144.347212167434", "geo_shape": {"type": "Point", "coordinates": [144.34721216743418, -38.13995369021788]}, "lat": "-38.1399536902179", "cogg": "Y"}, "geometry": {"type": "Point", "coordinates": [144.347212167, -38.1399536902]}, "record_timestamp": "2019-09-11T13:11:22.133+10:00"},{"datasetid": "neighbourhood-houses-greater-geelong", "recordid": "9ae02101a8ca39f39d3ebbb954e6f92a6b634739", "fields": {"name": "GROVEDALE COMM CNTR/SNRCITZ", "geo_point_2d": [-38.2083447502, 144.333464957], "long": "144.333464957468", "geo_shape": {"type": "Point", "coordinates": [144.33346495746756, -38.208344750228065]}, "lat": "-38.2083447502281", "cogg": "Y"}, "geometry": {"type": "Point", "coordinates": [144.333464957, -38.2083447502]}, "record_timestamp": "2019-09-11T13:11:22.133+10:00"},{"datasetid": "neighbourhood-houses-greater-geelong", "recordid": "1efdb0821ca5e11fab93a7c5e06fb7d9b0ab7740", "fields": {"name": "SPRINGDALE COMMUNITY CENTRE", "geo_point_2d": [-38.1743307857, 144.570301139], "long": "144.570301138948", "geo_shape": {"type": "Point", "coordinates": [144.57030113894803, -38.17433078568369]}, "lat": "-38.1743307856837", "cogg": "Y"}, "geometry": {"type": "Point", "coordinates": [144.570301139, -38.1743307857]}, "record_timestamp": "2019-09-11T13:11:22.133+10:00"},{"datasetid": "neighbourhood-houses-greater-geelong", "recordid": "83109b18514f33375c0344c31c3e2f26c721178d", "fields": {"name": "LARA COMMUNITY CENTRE", "geo_point_2d": [-38.0219788308, 144.409775974], "long": "144.409775974068", "geo_shape": {"type": "Point", "coordinates": [144.40977597406834, -38.021978830842244]}, "lat": "-38.0219788308422", "cogg": "Y"}, "geometry": {"type": "Point", "coordinates": [144.409775974, -38.0219788308]}, "record_timestamp": "2019-09-11T13:11:22.133+10:00"},{"datasetid": "neighbourhood-houses-greater-geelong", "recordid": "6d261653d11afa66d0ced105ec9ec115bb9b7e7c", "fields": {"name": "SOUTH BARWON COMM CENTRE", "geo_point_2d": [-38.1711275381, 144.344636279], "long": "144.344636279001", "geo_shape": {"type": "Point", "coordinates": [144.3446362790005, -38.171127538072916]}, "lat": "-38.1711275380729", "cogg": "Y"}, "geometry": {"type": "Point", "coordinates": [144.344636279, -38.1711275381]}, "record_timestamp": "2019-09-11T13:11:22.133+10:00"}]