[{"datasetid": "playgrounds-city-of-greater-geelong", "recordid": "57a30f1e91223595fb4456a85a220c5ff0a49458", "fields": {"pg_name": "Esperance Reserve", "geo_shape": {"type": "Point", "coordinates": [144.4199201352537, -38.02406862754951]}, "geo_point_2d": [-38.0240686275, 144.419920135], "objectid": 1}, "geometry": {"type": "Point", "coordinates": [144.419920135, -38.0240686275]}, "record_timestamp": "2019-10-14T12:45:21.767+11:00"},{"datasetid": "playgrounds-city-of-greater-geelong", "recordid": "5e3b801cb2955ceadf1d899f54c2f5c56ceb7e5c", "fields": {"pg_name": "McClelland Reserve", "geo_shape": {"type": "Point", "coordinates": [144.41626913048495, -38.02558516079498]}, "geo_point_2d": [-38.0255851608, 144.41626913], "objectid": 2}, "geometry": {"type": "Point", "coordinates": [144.41626913, -38.0255851608]}, "record_timestamp": "2019-10-14T12:45:21.767+11:00"},{"datasetid": "playgrounds-city-of-greater-geelong", "recordid": "793adc61558336e324c652ef1bbd95a765b98852", "fields": {"pg_name": "Goldfinch Reserve", "geo_shape": {"type": "Point", "coordinates": [144.41560333393124, -38.03420256650109]}, "geo_point_2d": [-38.0342025665, 144.415603334], "objectid": 3}, "geometry": {"type": "Point", "coordinates": [144.415603334, -38.0342025665]}, "record_timestamp": "2019-10-14T12:45:21.767+11:00"},{"datasetid": "playgrounds-city-of-greater-geelong", "recordid": "1233d82c5cc23a851c9c7ce587b5c8d42bb8cb28", "fields": {"pg_name": "Lara Recreation Reserve", "geo_shape": {"type": "Point", "coordinates": [144.41363007218044, -38.018606034742035]}, "geo_point_2d": [-38.0186060347, 144.413630072], "objectid": 4}, "geometry": {"type": "Point", "coordinates": [144.413630072, -38.0186060347]}, "record_timestamp": "2019-10-14T12:45:21.767+11:00"},{"datasetid": "playgrounds-city-of-greater-geelong", "recordid": "37daa301d003bbe036b0d3ba110e14383c0926c4", "fields": {"pg_name": "Lara C. Centre", "geo_shape": {"type": "Point", "coordinates": [144.40936033574178, -38.02224052101682]}, "geo_point_2d": [-38.022240521, 144.409360336], "objectid": 7}, "geometry": {"type": "Point", "coordinates": [144.409360336, -38.022240521]}, "record_timestamp": "2019-10-14T12:45:21.767+11:00"},{"datasetid": "playgrounds-city-of-greater-geelong", "recordid": "6c32efaab9d94532e23a4d56a97aee191776b07c", "fields": {"pg_name": "Flinders Reserve South", "geo_shape": {"type": "Point", "coordinates": [144.40227190206102, -38.02010082424934]}, "geo_point_2d": [-38.0201008242, 144.402271902], "objectid": 8}, "geometry": {"type": "Point", "coordinates": [144.402271902, -38.0201008242]}, "record_timestamp": "2019-10-14T12:45:21.767+11:00"},{"datasetid": "playgrounds-city-of-greater-geelong", "recordid": "1837ab7def7ceff0e974a3586331326940051e68", "fields": {"pg_name": "Richard Reserve", "geo_shape": {"type": "Point", "coordinates": [144.39316852081717, -38.0283546045622]}, "geo_point_2d": [-38.0283546046, 144.393168521], "objectid": 11}, "geometry": {"type": "Point", "coordinates": [144.393168521, -38.0283546046]}, "record_timestamp": "2019-10-14T12:45:21.767+11:00"},{"datasetid": "playgrounds-city-of-greater-geelong", "recordid": "af3cdb3a3cabead3dbc651b162cbc8446a1f147a", "fields": {"pg_name": "Chirnside Park South", "geo_shape": {"type": "Point", "coordinates": [144.39051549112554, -38.02137659898139]}, "geo_point_2d": [-38.021376599, 144.390515491], "objectid": 12}, "geometry": {"type": "Point", "coordinates": [144.390515491, -38.021376599]}, "record_timestamp": "2019-10-14T12:45:21.767+11:00"},{"datasetid": "playgrounds-city-of-greater-geelong", "recordid": "cff99ebde7c13be5be7bd13f935bd365eb65f18b", "fields": {"pg_name": "Upton Reserve", "geo_shape": {"type": "Point", "coordinates": [144.38501110654124, -38.01903826564656]}, "geo_point_2d": [-38.0190382656, 144.385011107], "objectid": 15}, "geometry": {"type": "Point", "coordinates": [144.385011107, -38.0190382656]}, "record_timestamp": "2019-10-14T12:45:21.767+11:00"},{"datasetid": "playgrounds-city-of-greater-geelong", "recordid": "646958901852eca7eaf610e13002003a63cca17d", "fields": {"pg_name": "Anakie Reserve", "geo_shape": {"type": "Point", "coordinates": [144.25182266664274, -37.915671354527476]}, "geo_point_2d": [-37.9156713545, 144.251822667], "objectid": 16}, "geometry": {"type": "Point", "coordinates": [144.251822667, -37.9156713545]}, "record_timestamp": "2019-10-14T12:45:21.767+11:00"},{"datasetid": "playgrounds-city-of-greater-geelong", "recordid": "b5e7f23387af61c8d60474bcecd056734d96932e", "fields": {"pg_name": "Meath Reserve", "geo_shape": {"type": "Point", "coordinates": [144.35480582441792, -38.07100078322319]}, "geo_point_2d": [-38.0710007832, 144.354805824], "objectid": 21}, "geometry": {"type": "Point", "coordinates": [144.354805824, -38.0710007832]}, "record_timestamp": "2019-10-14T12:45:21.767+11:00"},{"datasetid": "playgrounds-city-of-greater-geelong", "recordid": "dd449bab2e845fb86adb2f73c4c734c2b6d93d00", "fields": {"pg_name": "Talona Reserve", "geo_shape": {"type": "Point", "coordinates": [144.36476852799592, -38.07351862568269]}, "geo_point_2d": [-38.0735186257, 144.364768528], "objectid": 27}, "geometry": {"type": "Point", "coordinates": [144.364768528, -38.0735186257]}, "record_timestamp": "2019-10-14T12:45:21.767+11:00"},{"datasetid": "playgrounds-city-of-greater-geelong", "recordid": "ee00706dbb1bf182bf218ee7027c5e867d14b9cb", "fields": {"pg_name": "Corio Community Park", "geo_shape": {"type": "Point", "coordinates": [144.3596210615028, -38.07377829617412]}, "geo_point_2d": [-38.0737782962, 144.359621062], "objectid": 28}, "geometry": {"type": "Point", "coordinates": [144.359621062, -38.0737782962]}, "record_timestamp": "2019-10-14T12:45:21.767+11:00"},{"datasetid": "playgrounds-city-of-greater-geelong", "recordid": "3ac77b38b79375bfa859f1e65df41233eadce643", "fields": {"pg_name": "Paley Reserve", "geo_shape": {"type": "Point", "coordinates": [144.34577011763653, -38.07461586548582]}, "geo_point_2d": [-38.0746158655, 144.345770118], "objectid": 34}, "geometry": {"type": "Point", "coordinates": [144.345770118, -38.0746158655]}, "record_timestamp": "2019-10-14T12:45:21.767+11:00"},{"datasetid": "playgrounds-city-of-greater-geelong", "recordid": "de3ebe7111228818e5383985ad3ac880f2681d2b", "fields": {"pg_name": "Kanooka Reserve", "geo_shape": {"type": "Point", "coordinates": [144.34237920907265, -38.078525957090726]}, "geo_point_2d": [-38.0785259571, 144.342379209], "objectid": 36}, "geometry": {"type": "Point", "coordinates": [144.342379209, -38.0785259571]}, "record_timestamp": "2019-10-14T12:45:21.767+11:00"},{"datasetid": "playgrounds-city-of-greater-geelong", "recordid": "304fb1cc35732763215faac53d05f683fc12100a", "fields": {"pg_name": "Rosella Reserve", "geo_shape": {"type": "Point", "coordinates": [144.35344306639473, -38.08911472160198]}, "geo_point_2d": [-38.0891147216, 144.353443066], "objectid": 40}, "geometry": {"type": "Point", "coordinates": [144.353443066, -38.0891147216]}, "record_timestamp": "2019-10-14T12:45:21.767+11:00"},{"datasetid": "playgrounds-city-of-greater-geelong", "recordid": "5efc17e016b86242b89161cac314339ce0187d64", "fields": {"pg_name": "Edison Reserve", "geo_shape": {"type": "Point", "coordinates": [144.33194451894002, -38.093946022605515]}, "geo_point_2d": [-38.0939460226, 144.331944519], "objectid": 47}, "geometry": {"type": "Point", "coordinates": [144.331944519, -38.0939460226]}, "record_timestamp": "2019-10-14T12:45:21.767+11:00"},{"datasetid": "playgrounds-city-of-greater-geelong", "recordid": "a2ee081c8f674fd22d2b438bf099115c43f989f7", "fields": {"pg_name": "Hosie Reserve", "geo_shape": {"type": "Point", "coordinates": [144.3269741918746, -38.102680307221966]}, "geo_point_2d": [-38.1026803072, 144.326974192], "objectid": 54}, "geometry": {"type": "Point", "coordinates": [144.326974192, -38.1026803072]}, "record_timestamp": "2019-10-14T12:45:21.767+11:00"},{"datasetid": "playgrounds-city-of-greater-geelong", "recordid": "4e5de2de2b7f9f937afb22c92b2ed99d692f23ca", "fields": {"pg_name": "Edgecombe Reserve", "geo_shape": {"type": "Point", "coordinates": [144.32824967412313, -38.115648896936946]}, "geo_point_2d": [-38.1156488969, 144.328249674], "objectid": 58}, "geometry": {"type": "Point", "coordinates": [144.328249674, -38.1156488969]}, "record_timestamp": "2019-10-14T12:45:21.767+11:00"},{"datasetid": "playgrounds-city-of-greater-geelong", "recordid": "adfc9d56884cd4dd465712bbf547b61e840bd280", "fields": {"pg_name": "Sharland Park", "geo_shape": {"type": "Point", "coordinates": [144.3252344301869, -38.11214969247684]}, "geo_point_2d": [-38.1121496925, 144.32523443], "objectid": 59}, "geometry": {"type": "Point", "coordinates": [144.32523443, -38.1121496925]}, "record_timestamp": "2019-10-14T12:45:21.767+11:00"},{"datasetid": "playgrounds-city-of-greater-geelong", "recordid": "30ce08342045aadce2d0bbf4042feae7cfbb1212", "fields": {"pg_name": "Downie Reserve", "geo_shape": {"type": "Point", "coordinates": [144.32570765746522, -38.119145588452355]}, "geo_point_2d": [-38.1191455885, 144.325707657], "objectid": 61}, "geometry": {"type": "Point", "coordinates": [144.325707657, -38.1191455885]}, "record_timestamp": "2019-10-14T12:45:21.767+11:00"},{"datasetid": "playgrounds-city-of-greater-geelong", "recordid": "2ebd71e05ab7eb833963cadcfc1e96e4154f2b5e", "fields": {"pg_name": "Vines Reserve", "geo_shape": {"type": "Point", "coordinates": [144.32855966131208, -38.122829854347145]}, "geo_point_2d": [-38.1228298543, 144.328559661], "objectid": 62}, "geometry": {"type": "Point", "coordinates": [144.328559661, -38.1228298543]}, "record_timestamp": "2019-10-14T12:45:21.767+11:00"},{"datasetid": "playgrounds-city-of-greater-geelong", "recordid": "aabe6fb4bd6450e30c4092980d80295fe14ccb00", "fields": {"pg_name": "Geelong West Oval", "geo_shape": {"type": "Point", "coordinates": [144.346224833805, -38.13135912750218]}, "geo_point_2d": [-38.1313591275, 144.346224834], "objectid": 72}, "geometry": {"type": "Point", "coordinates": [144.346224834, -38.1313591275]}, "record_timestamp": "2019-10-14T12:45:21.767+11:00"},{"datasetid": "playgrounds-city-of-greater-geelong", "recordid": "65fc90a2e3b6ebc29d95f4ec7011f3bac6b47f86", "fields": {"pg_name": "Sparrow Park South", "geo_shape": {"type": "Point", "coordinates": [144.34129122080668, -38.14110082596653]}, "geo_point_2d": [-38.141100826, 144.341291221], "objectid": 73}, "geometry": {"type": "Point", "coordinates": [144.341291221, -38.141100826]}, "record_timestamp": "2019-10-14T12:45:21.767+11:00"},{"datasetid": "playgrounds-city-of-greater-geelong", "recordid": "f4cf71441af1b8516d1ea7f167283394db9657e5", "fields": {"pg_name": "Girton Reserve", "geo_shape": {"type": "Point", "coordinates": [144.3326232082999, -38.14220126631704]}, "geo_point_2d": [-38.1422012663, 144.332623208], "objectid": 76}, "geometry": {"type": "Point", "coordinates": [144.332623208, -38.1422012663]}, "record_timestamp": "2019-10-14T12:45:21.767+11:00"},{"datasetid": "playgrounds-city-of-greater-geelong", "recordid": "ef580d03566a735c5f234241a47e732c74ff5755", "fields": {"pg_name": "L.J. Keavy Park", "geo_shape": {"type": "Point", "coordinates": [144.33933183887606, -38.14397471077423]}, "geo_point_2d": [-38.1439747108, 144.339331839], "objectid": 77}, "geometry": {"type": "Point", "coordinates": [144.339331839, -38.1439747108]}, "record_timestamp": "2019-10-14T12:45:21.767+11:00"},{"datasetid": "playgrounds-city-of-greater-geelong", "recordid": "abe9316e9f8307c9e8a67f4541716edbda244760", "fields": {"pg_name": "Kenworthy Reserve", "geo_shape": {"type": "Point", "coordinates": [144.35114951104714, -38.13808689445113]}, "geo_point_2d": [-38.1380868945, 144.351149511], "objectid": 78}, "geometry": {"type": "Point", "coordinates": [144.351149511, -38.1380868945]}, "record_timestamp": "2019-10-14T12:45:21.767+11:00"},{"datasetid": "playgrounds-city-of-greater-geelong", "recordid": "4b7ac8efc94e10477e4fc7cfdd8003a339186737", "fields": {"pg_name": "Osborne Park", "geo_shape": {"type": "Point", "coordinates": [144.35611707467442, -38.11950395616864]}, "geo_point_2d": [-38.1195039562, 144.356117075], "objectid": 84}, "geometry": {"type": "Point", "coordinates": [144.356117075, -38.1195039562]}, "record_timestamp": "2019-10-14T12:45:21.767+11:00"},{"datasetid": "playgrounds-city-of-greater-geelong", "recordid": "c6784d38a8120debf8f599c50241c47d2f3ebbca", "fields": {"pg_name": "Waverley Reserve", "geo_shape": {"type": "Point", "coordinates": [144.36092079791126, -38.097982840803176]}, "geo_point_2d": [-38.0979828408, 144.360920798], "objectid": 86}, "geometry": {"type": "Point", "coordinates": [144.360920798, -38.0979828408]}, "record_timestamp": "2019-10-14T12:45:21.767+11:00"},{"datasetid": "playgrounds-city-of-greater-geelong", "recordid": "cb6509f410a2e82ca12fc5977d3595ae620df0b0", "fields": {"pg_name": "Windsor Park", "geo_shape": {"type": "Point", "coordinates": [144.36120706372947, -38.090856854715696]}, "geo_point_2d": [-38.0908568547, 144.361207064], "objectid": 87}, "geometry": {"type": "Point", "coordinates": [144.361207064, -38.0908568547]}, "record_timestamp": "2019-10-14T12:45:21.767+11:00"},{"datasetid": "playgrounds-city-of-greater-geelong", "recordid": "9fa94aa42735c24728592f9e63c9ca375224edcc", "fields": {"pg_name": "Windsor Skate Park", "geo_shape": {"type": "Point", "coordinates": [144.36280732578498, -38.08905056362045]}, "geo_point_2d": [-38.0890505636, 144.362807326], "objectid": 88}, "geometry": {"type": "Point", "coordinates": [144.362807326, -38.0890505636]}, "record_timestamp": "2019-10-14T12:45:21.767+11:00"},{"datasetid": "playgrounds-city-of-greater-geelong", "recordid": "1ef08cb56d37502f5c9735d7ab64cbb1cfab51ab", "fields": {"pg_name": "Stead Park-Tourist Info Centre", "geo_shape": {"type": "Point", "coordinates": [144.35982533912014, -38.08401864437765]}, "geo_point_2d": [-38.0840186444, 144.359825339], "objectid": 89}, "geometry": {"type": "Point", "coordinates": [144.359825339, -38.0840186444]}, "record_timestamp": "2019-10-14T12:45:21.767+11:00"},{"datasetid": "playgrounds-city-of-greater-geelong", "recordid": "70775a6afb02eb74dce89702e4abe3c2ba5f909d", "fields": {"pg_name": "Pevensey Park", "geo_shape": {"type": "Point", "coordinates": [144.37148466441408, -38.14950803236933]}, "geo_point_2d": [-38.1495080324, 144.371484664], "objectid": 91}, "geometry": {"type": "Point", "coordinates": [144.371484664, -38.1495080324]}, "record_timestamp": "2019-10-14T12:45:21.767+11:00"},{"datasetid": "playgrounds-city-of-greater-geelong", "recordid": "646f9909baffab201743755f00b3258a3631f394", "fields": {"pg_name": "Hopetoun Park", "geo_shape": {"type": "Point", "coordinates": [144.36732686760013, -38.15655027178933]}, "geo_point_2d": [-38.1565502718, 144.367326868], "objectid": 95}, "geometry": {"type": "Point", "coordinates": [144.367326868, -38.1565502718]}, "record_timestamp": "2019-10-14T12:45:21.767+11:00"},{"datasetid": "playgrounds-city-of-greater-geelong", "recordid": "fa70480b9a692ffbca2f9108aed7ee39396d4563", "fields": {"pg_name": "Richmond Oval", "geo_shape": {"type": "Point", "coordinates": [144.36710788654017, -38.16035697067919]}, "geo_point_2d": [-38.1603569707, 144.367107887], "objectid": 96}, "geometry": {"type": "Point", "coordinates": [144.367107887, -38.1603569707]}, "record_timestamp": "2019-10-14T12:45:21.767+11:00"},{"datasetid": "playgrounds-city-of-greater-geelong", "recordid": "f9973c4c1104878576c0b8622ac9eb99fcdedb28", "fields": {"pg_name": "Thomson Reserve", "geo_shape": {"type": "Point", "coordinates": [144.3748450517852, -38.16543461361198]}, "geo_point_2d": [-38.1654346136, 144.374845052], "objectid": 97}, "geometry": {"type": "Point", "coordinates": [144.374845052, -38.1654346136]}, "record_timestamp": "2019-10-14T12:45:21.767+11:00"},{"datasetid": "playgrounds-city-of-greater-geelong", "recordid": "ed9584d074616672cd0a6ad095a7f5ab5c043c6c", "fields": {"pg_name": "Kardinia Fitness", "geo_shape": {"type": "Point", "coordinates": [144.3511794677169, -38.15798320987514]}, "geo_point_2d": [-38.1579832099, 144.351179468], "objectid": 101}, "geometry": {"type": "Point", "coordinates": [144.351179468, -38.1579832099]}, "record_timestamp": "2019-10-14T12:45:21.767+11:00"},{"datasetid": "playgrounds-city-of-greater-geelong", "recordid": "744ecbfde25838060c49e275e6ede4c07af2799a", "fields": {"pg_name": "Kardinia (2)", "geo_shape": {"type": "Point", "coordinates": [144.35267867933356, -38.1556423018094]}, "geo_point_2d": [-38.1556423018, 144.352678679], "objectid": 102}, "geometry": {"type": "Point", "coordinates": [144.352678679, -38.1556423018]}, "record_timestamp": "2019-10-14T12:45:21.767+11:00"},{"datasetid": "playgrounds-city-of-greater-geelong", "recordid": "df247ca4673f1e171cfa039d1eb5a71320fc2bb8", "fields": {"pg_name": "Barwon Valley Activity", "geo_shape": {"type": "Point", "coordinates": [144.3513880979675, -38.168436219305406]}, "geo_point_2d": [-38.1684362193, 144.351388098], "objectid": 104}, "geometry": {"type": "Point", "coordinates": [144.351388098, -38.1684362193]}, "record_timestamp": "2019-10-14T12:45:21.767+11:00"},{"datasetid": "playgrounds-city-of-greater-geelong", "recordid": "f997bd289b59e989a903bbfc205532afa1ec4c87", "fields": {"pg_name": "Herd Reserve", "geo_shape": {"type": "Point", "coordinates": [144.34727910079593, -38.17488996420363]}, "geo_point_2d": [-38.1748899642, 144.347279101], "objectid": 105}, "geometry": {"type": "Point", "coordinates": [144.347279101, -38.1748899642]}, "record_timestamp": "2019-10-14T12:45:21.767+11:00"},{"datasetid": "playgrounds-city-of-greater-geelong", "recordid": "949093ea08358dc85d0ec780521323204f94abeb", "fields": {"pg_name": "B.Heights Neigh.", "geo_shape": {"type": "Point", "coordinates": [144.34000569986802, -38.17182055752428]}, "geo_point_2d": [-38.1718205575, 144.3400057], "objectid": 106}, "geometry": {"type": "Point", "coordinates": [144.3400057, -38.1718205575]}, "record_timestamp": "2019-10-14T12:45:21.767+11:00"},{"datasetid": "playgrounds-city-of-greater-geelong", "recordid": "357006dce5be6e9e52a2f2e1e2f6845fd1dd4a65", "fields": {"pg_name": "Morris Reserve", "geo_shape": {"type": "Point", "coordinates": [144.3353950148878, -38.17283066313419]}, "geo_point_2d": [-38.1728306631, 144.335395015], "objectid": 107}, "geometry": {"type": "Point", "coordinates": [144.335395015, -38.1728306631]}, "record_timestamp": "2019-10-14T12:45:21.767+11:00"},{"datasetid": "playgrounds-city-of-greater-geelong", "recordid": "e80f3c3592174a1d67f35e20dcc209ac423d5298", "fields": {"pg_name": "Cameron Park", "geo_shape": {"type": "Point", "coordinates": [144.34900683221485, -38.16810877177196]}, "geo_point_2d": [-38.1681087718, 144.349006832], "objectid": 110}, "geometry": {"type": "Point", "coordinates": [144.349006832, -38.1681087718]}, "record_timestamp": "2019-10-14T12:45:21.767+11:00"},{"datasetid": "playgrounds-city-of-greater-geelong", "recordid": "bdc683a3228ad9aa2e413cf78fce931aec20c972", "fields": {"pg_name": "Barwon Valley Fun Park", "geo_shape": {"type": "Point", "coordinates": [144.33587099241663, -38.165350218263335]}, "geo_point_2d": [-38.1653502183, 144.335870992], "objectid": 112}, "geometry": {"type": "Point", "coordinates": [144.335870992, -38.1653502183]}, "record_timestamp": "2019-10-14T12:45:21.767+11:00"},{"datasetid": "playgrounds-city-of-greater-geelong", "recordid": "220a90ede4949e70a6021a742dfaf45bf4c9c9a5", "fields": {"pg_name": "King Lloyd Reserve", "geo_shape": {"type": "Point", "coordinates": [144.32702215557242, -38.16317084935754]}, "geo_point_2d": [-38.1631708494, 144.327022156], "objectid": 113}, "geometry": {"type": "Point", "coordinates": [144.327022156, -38.1631708494]}, "record_timestamp": "2019-10-14T12:45:21.767+11:00"},{"datasetid": "playgrounds-city-of-greater-geelong", "recordid": "135b46087bd9c800ec35722f6197c495e66f91ed", "fields": {"pg_name": "Percy Reserve", "geo_shape": {"type": "Point", "coordinates": [144.3425776921688, -38.15773541618628]}, "geo_point_2d": [-38.1577354162, 144.342577692], "objectid": 114}, "geometry": {"type": "Point", "coordinates": [144.342577692, -38.1577354162]}, "record_timestamp": "2019-10-14T12:45:21.767+11:00"},{"datasetid": "playgrounds-city-of-greater-geelong", "recordid": "0eec17785f248c8e8d49b270ca9d389d5f52d17f", "fields": {"pg_name": "Queens Reserve", "geo_shape": {"type": "Point", "coordinates": [144.33112393287658, -38.152045666578566]}, "geo_point_2d": [-38.1520456666, 144.331123933], "objectid": 119}, "geometry": {"type": "Point", "coordinates": [144.331123933, -38.1520456666]}, "record_timestamp": "2019-10-14T12:45:21.767+11:00"},{"datasetid": "playgrounds-city-of-greater-geelong", "recordid": "b16e2d4904ba1826cfbaab1d076e5badba14a530", "fields": {"pg_name": "Buckingham Reserve", "geo_shape": {"type": "Point", "coordinates": [144.3262564140302, -38.158019887381414]}, "geo_point_2d": [-38.1580198874, 144.326256414], "objectid": 121}, "geometry": {"type": "Point", "coordinates": [144.326256414, -38.1580198874]}, "record_timestamp": "2019-10-14T12:45:21.767+11:00"},{"datasetid": "playgrounds-city-of-greater-geelong", "recordid": "9deb05363d9279ba873c120ee11d039e840159df", "fields": {"pg_name": "Windmill Reserve", "geo_shape": {"type": "Point", "coordinates": [144.32516772552444, -38.15364686853361]}, "geo_point_2d": [-38.1536468685, 144.325167726], "objectid": 124}, "geometry": {"type": "Point", "coordinates": [144.325167726, -38.1536468685]}, "record_timestamp": "2019-10-14T12:45:21.767+11:00"},{"datasetid": "playgrounds-city-of-greater-geelong", "recordid": "50cd4e01899ea05bec577ec196537c4012bd5572", "fields": {"pg_name": "Lambhill Reserve", "geo_shape": {"type": "Point", "coordinates": [144.31259543895627, -38.166744795006885]}, "geo_point_2d": [-38.166744795, 144.312595439], "objectid": 125}, "geometry": {"type": "Point", "coordinates": [144.312595439, -38.166744795]}, "record_timestamp": "2019-10-14T12:45:21.767+11:00"},{"datasetid": "playgrounds-city-of-greater-geelong", "recordid": "ae89971ad2ebffae93f267374225fe2c6a6e6f60", "fields": {"pg_name": "Tim Hill RR-TC", "geo_shape": {"type": "Point", "coordinates": [144.30814276574313, -38.17329951779181]}, "geo_point_2d": [-38.1732995178, 144.308142766], "objectid": 135}, "geometry": {"type": "Point", "coordinates": [144.308142766, -38.1732995178]}, "record_timestamp": "2019-10-14T12:45:21.767+11:00"},{"datasetid": "playgrounds-city-of-greater-geelong", "recordid": "a51b1ce1f3e55029d1f9b9c51d7f90723b21537c", "fields": {"pg_name": "Shoubra Reserve", "geo_shape": {"type": "Point", "coordinates": [144.31463658024902, -38.17607672377882]}, "geo_point_2d": [-38.1760767238, 144.31463658], "objectid": 136}, "geometry": {"type": "Point", "coordinates": [144.31463658, -38.1760767238]}, "record_timestamp": "2019-10-14T12:45:21.767+11:00"},{"datasetid": "playgrounds-city-of-greater-geelong", "recordid": "a0a69cb450d500defb8a098d3f6c0c06c8cb0f6b", "fields": {"pg_name": "Gwyther Reserve", "geo_shape": {"type": "Point", "coordinates": [144.31236310095989, -38.18198333453717]}, "geo_point_2d": [-38.1819833345, 144.312363101], "objectid": 138}, "geometry": {"type": "Point", "coordinates": [144.312363101, -38.1819833345]}, "record_timestamp": "2019-10-14T12:45:21.767+11:00"},{"datasetid": "playgrounds-city-of-greater-geelong", "recordid": "4fed16fa391c2802fd27e17443ec6d1b97238f7d", "fields": {"pg_name": "McDonald Reserve", "geo_shape": {"type": "Point", "coordinates": [144.32220402590923, -38.1827440896774]}, "geo_point_2d": [-38.1827440897, 144.322204026], "objectid": 140}, "geometry": {"type": "Point", "coordinates": [144.322204026, -38.1827440897]}, "record_timestamp": "2019-10-14T12:45:21.767+11:00"},{"datasetid": "playgrounds-city-of-greater-geelong", "recordid": "192f8d44fe1982d01cc61581d0b3d7804e1dd444", "fields": {"pg_name": "Konrads Reserve", "geo_shape": {"type": "Point", "coordinates": [144.31944311267762, -38.18451830897613]}, "geo_point_2d": [-38.184518309, 144.319443113], "objectid": 141}, "geometry": {"type": "Point", "coordinates": [144.319443113, -38.184518309]}, "record_timestamp": "2019-10-14T12:45:21.767+11:00"},{"datasetid": "playgrounds-city-of-greater-geelong", "recordid": "660c259400481ae5f212900c8cf5980fb9fb5749", "fields": {"pg_name": "Kindale Reserve", "geo_shape": {"type": "Point", "coordinates": [144.31784569085372, -38.189086515897486]}, "geo_point_2d": [-38.1890865159, 144.317845691], "objectid": 142}, "geometry": {"type": "Point", "coordinates": [144.317845691, -38.1890865159]}, "record_timestamp": "2019-10-14T12:45:21.767+11:00"},{"datasetid": "playgrounds-city-of-greater-geelong", "recordid": "36df2c9b3dc579ac8a5a756ec39b5c016886d93c", "fields": {"pg_name": "Leisurelink Pool", "geo_shape": {"type": "Point", "coordinates": [144.32460376063105, -38.18753721274826]}, "geo_point_2d": [-38.1875372127, 144.324603761], "objectid": 143}, "geometry": {"type": "Point", "coordinates": [144.324603761, -38.1875372127]}, "record_timestamp": "2019-10-14T12:45:21.767+11:00"},{"datasetid": "playgrounds-city-of-greater-geelong", "recordid": "4d854a18143907b922ec57f723de758df0bafdd6", "fields": {"pg_name": "Waurn Ponds North", "geo_shape": {"type": "Point", "coordinates": [144.3335418816135, -38.19185467886069]}, "geo_point_2d": [-38.1918546789, 144.333541882], "objectid": 148}, "geometry": {"type": "Point", "coordinates": [144.333541882, -38.1918546789]}, "record_timestamp": "2019-10-14T12:45:21.767+11:00"},{"datasetid": "playgrounds-city-of-greater-geelong", "recordid": "36753a8cc25db9a8d06e38848bb1b8df99a44628", "fields": {"pg_name": "Stan Swain Child. Playground", "geo_shape": {"type": "Point", "coordinates": [144.38790735274006, -38.183415082204455]}, "geo_point_2d": [-38.1834150822, 144.387907353], "objectid": 167}, "geometry": {"type": "Point", "coordinates": [144.387907353, -38.1834150822]}, "record_timestamp": "2019-10-14T12:45:21.767+11:00"},{"datasetid": "playgrounds-city-of-greater-geelong", "recordid": "4062d0e6a91f8b4514e4e9346664dc7b096565a5", "fields": {"pg_name": "Ellstone Reserve", "geo_shape": {"type": "Point", "coordinates": [144.38516295150032, -38.186452065796885]}, "geo_point_2d": [-38.1864520658, 144.385162952], "objectid": 168}, "geometry": {"type": "Point", "coordinates": [144.385162952, -38.1864520658]}, "record_timestamp": "2019-10-14T12:45:21.767+11:00"},{"datasetid": "playgrounds-city-of-greater-geelong", "recordid": "f9eab1e03d61bf975edfebbef6f16adcc2d7fbe3", "fields": {"pg_name": "Ottoman Reserve", "geo_shape": {"type": "Point", "coordinates": [144.39687504982996, -38.18688556053632]}, "geo_point_2d": [-38.1868855605, 144.39687505], "objectid": 170}, "geometry": {"type": "Point", "coordinates": [144.39687505, -38.1868855605]}, "record_timestamp": "2019-10-14T12:45:21.767+11:00"},{"datasetid": "playgrounds-city-of-greater-geelong", "recordid": "de58659a593eacf11ab94c85c08f1f812be00b7f", "fields": {"pg_name": "Stephania Mews Reserve", "geo_shape": {"type": "Point", "coordinates": [144.3839232053163, -38.17791572186006]}, "geo_point_2d": [-38.1779157219, 144.383923205], "objectid": 183}, "geometry": {"type": "Point", "coordinates": [144.383923205, -38.1779157219]}, "record_timestamp": "2019-10-14T12:45:21.767+11:00"},{"datasetid": "playgrounds-city-of-greater-geelong", "recordid": "e9948ba5ec59ea5c8fc952506b0ee8bed808bf59", "fields": {"pg_name": "Orchard Playground", "geo_shape": {"type": "Point", "coordinates": [144.37967838397282, -38.178849244485434]}, "geo_point_2d": [-38.1788492445, 144.379678384], "objectid": 185}, "geometry": {"type": "Point", "coordinates": [144.379678384, -38.1788492445]}, "record_timestamp": "2019-10-14T12:45:21.767+11:00"},{"datasetid": "playgrounds-city-of-greater-geelong", "recordid": "7823a48c975dac5d54edb8f3622f3ede95fae4f5", "fields": {"pg_name": "Japonica Park", "geo_shape": {"type": "Point", "coordinates": [144.39544592807118, -38.16244577920315]}, "geo_point_2d": [-38.1624457792, 144.395445928], "objectid": 194}, "geometry": {"type": "Point", "coordinates": [144.395445928, -38.1624457792]}, "record_timestamp": "2019-10-14T12:45:21.767+11:00"},{"datasetid": "playgrounds-city-of-greater-geelong", "recordid": "4a0bfdab803674b5296982bfd0d49de8e3e75ade", "fields": {"pg_name": "Mars Reserve", "geo_shape": {"type": "Point", "coordinates": [144.39832506106407, -38.16245608890868]}, "geo_point_2d": [-38.1624560889, 144.398325061], "objectid": 195}, "geometry": {"type": "Point", "coordinates": [144.398325061, -38.1624560889]}, "record_timestamp": "2019-10-14T12:45:21.767+11:00"},{"datasetid": "playgrounds-city-of-greater-geelong", "recordid": "5cc409579b41ad3577c67d33a0791e78e42e5dab", "fields": {"pg_name": "Paech Park", "geo_shape": {"type": "Point", "coordinates": [144.4687215081192, -38.181951438374824]}, "geo_point_2d": [-38.1819514384, 144.468721508], "objectid": 204}, "geometry": {"type": "Point", "coordinates": [144.468721508, -38.1819514384]}, "record_timestamp": "2019-10-14T12:45:21.767+11:00"},{"datasetid": "playgrounds-city-of-greater-geelong", "recordid": "4c9988bdef7ac24e80d5ba0e9cc9ec9d2433a6a6", "fields": {"pg_name": "Northview Reserve", "geo_shape": {"type": "Point", "coordinates": [144.47223378022855, -38.182510171152316]}, "geo_point_2d": [-38.1825101712, 144.47223378], "objectid": 205}, "geometry": {"type": "Point", "coordinates": [144.47223378, -38.1825101712]}, "record_timestamp": "2019-10-14T12:45:21.767+11:00"},{"datasetid": "playgrounds-city-of-greater-geelong", "recordid": "4077419de6d4ae93673790ed9dcfccdcf32899f4", "fields": {"pg_name": "Belcher Park", "geo_shape": {"type": "Point", "coordinates": [144.46921958052482, -38.18790144147002]}, "geo_point_2d": [-38.1879014415, 144.469219581], "objectid": 208}, "geometry": {"type": "Point", "coordinates": [144.469219581, -38.1879014415]}, "record_timestamp": "2019-10-14T12:45:21.767+11:00"},{"datasetid": "playgrounds-city-of-greater-geelong", "recordid": "1bd2da5362230ed564bcf3af29a39114231895e1", "fields": {"pg_name": "Myuna Reserve", "geo_shape": {"type": "Point", "coordinates": [144.47111888429234, -38.1950260362212]}, "geo_point_2d": [-38.1950260362, 144.471118884], "objectid": 212}, "geometry": {"type": "Point", "coordinates": [144.471118884, -38.1950260362]}, "record_timestamp": "2019-10-14T12:45:21.767+11:00"},{"datasetid": "playgrounds-city-of-greater-geelong", "recordid": "8f8d4e8c4055e1e78272f94795ff036931c5a9a2", "fields": {"pg_name": "Kanimbla Reserve", "geo_shape": {"type": "Point", "coordinates": [144.4652115436106, -38.19235296311675]}, "geo_point_2d": [-38.1923529631, 144.465211544], "objectid": 214}, "geometry": {"type": "Point", "coordinates": [144.465211544, -38.1923529631]}, "record_timestamp": "2019-10-14T12:45:21.767+11:00"},{"datasetid": "playgrounds-city-of-greater-geelong", "recordid": "693b59e702462a381f19933f79c37333ff0f041f", "fields": {"pg_name": "Wallington Reserve", "geo_shape": {"type": "Point", "coordinates": [144.50231640620288, -38.22745807453956]}, "geo_point_2d": [-38.2274580745, 144.502316406], "objectid": 215}, "geometry": {"type": "Point", "coordinates": [144.502316406, -38.2274580745]}, "record_timestamp": "2019-10-14T12:45:21.767+11:00"},{"datasetid": "playgrounds-city-of-greater-geelong", "recordid": "5ec4a6765fbcfae0ec2a962b990d7b6aa2619427", "fields": {"pg_name": "Drysdale Railway Station Picn", "geo_shape": {"type": "Point", "coordinates": [144.55784867772945, -38.17966846412194]}, "geo_point_2d": [-38.1796684641, 144.557848678], "objectid": 216}, "geometry": {"type": "Point", "coordinates": [144.557848678, -38.1796684641]}, "record_timestamp": "2019-10-14T12:45:21.767+11:00"},{"datasetid": "playgrounds-city-of-greater-geelong", "recordid": "d3206c3676d56feabea4714f19aac1b301a8d2de", "fields": {"pg_name": "Wathaurung Reserve", "geo_shape": {"type": "Point", "coordinates": [144.57367591316623, -38.16866735839054]}, "geo_point_2d": [-38.1686673584, 144.573675913], "objectid": 218}, "geometry": {"type": "Point", "coordinates": [144.573675913, -38.1686673584]}, "record_timestamp": "2019-10-14T12:45:21.767+11:00"},{"datasetid": "playgrounds-city-of-greater-geelong", "recordid": "57711dd6eac66ea8c88fcc9a08ed1db762093141", "fields": {"pg_name": "Jetty Road Reserve", "geo_shape": {"type": "Point", "coordinates": [144.55284595733517, -38.161458101051785]}, "geo_point_2d": [-38.1614581011, 144.552845957], "objectid": 220}, "geometry": {"type": "Point", "coordinates": [144.552845957, -38.1614581011]}, "record_timestamp": "2019-10-14T12:45:21.767+11:00"},{"datasetid": "playgrounds-city-of-greater-geelong", "recordid": "b6d3921afd40ce8a63ab03b25505279773993387", "fields": {"pg_name": "Malcolm Reserve", "geo_shape": {"type": "Point", "coordinates": [144.58171083784387, -38.14775388742717]}, "geo_point_2d": [-38.1477538874, 144.581710838], "objectid": 227}, "geometry": {"type": "Point", "coordinates": [144.581710838, -38.1477538874]}, "record_timestamp": "2019-10-14T12:45:21.767+11:00"},{"datasetid": "playgrounds-city-of-greater-geelong", "recordid": "fd676825b0b717310982e9380bf25df8d3a255b5", "fields": {"pg_name": "Portarlington Tennis Club", "geo_shape": {"type": "Point", "coordinates": [144.64279564824585, -38.11302605122318]}, "geo_point_2d": [-38.1130260512, 144.642795648], "objectid": 234}, "geometry": {"type": "Point", "coordinates": [144.642795648, -38.1130260512]}, "record_timestamp": "2019-10-14T12:45:21.767+11:00"},{"datasetid": "playgrounds-city-of-greater-geelong", "recordid": "44aa5077f0e1ba495bcb0115253ec4de046236b6", "fields": {"pg_name": "Taylor Reserve", "geo_shape": {"type": "Point", "coordinates": [144.71088925744576, -38.13668498880445]}, "geo_point_2d": [-38.1366849888, 144.710889257], "objectid": 241}, "geometry": {"type": "Point", "coordinates": [144.710889257, -38.1366849888]}, "record_timestamp": "2019-10-14T12:45:21.767+11:00"},{"datasetid": "playgrounds-city-of-greater-geelong", "recordid": "0bec7c99ad0c4bd6b8677dc1ade75f6668316371", "fields": {"pg_name": "Wrathhall Reserve", "geo_shape": {"type": "Point", "coordinates": [144.71906821215856, -38.146531403221154]}, "geo_point_2d": [-38.1465314032, 144.719068212], "objectid": 242}, "geometry": {"type": "Point", "coordinates": [144.719068212, -38.1465314032]}, "record_timestamp": "2019-10-14T12:45:21.767+11:00"},{"datasetid": "playgrounds-city-of-greater-geelong", "recordid": "7b3f7344dad3f2c220438311977dc260d1766fcd", "fields": {"pg_name": "Lockington Crescent", "geo_shape": {"type": "Point", "coordinates": [144.60142022039616, -38.28394929333915]}, "geo_point_2d": [-38.2839492933, 144.60142022], "objectid": 249}, "geometry": {"type": "Point", "coordinates": [144.60142022, -38.2839492933]}, "record_timestamp": "2019-10-14T12:45:21.767+11:00"},{"datasetid": "playgrounds-city-of-greater-geelong", "recordid": "7b5696a6d7925a622852b3c86646026b8388cfb1", "fields": {"pg_name": "Longuehay Reserve", "geo_shape": {"type": "Point", "coordinates": [144.60579254590778, -38.27864654372879]}, "geo_point_2d": [-38.2786465437, 144.605792546], "objectid": 250}, "geometry": {"type": "Point", "coordinates": [144.605792546, -38.2786465437]}, "record_timestamp": "2019-10-14T12:45:21.767+11:00"},{"datasetid": "playgrounds-city-of-greater-geelong", "recordid": "e490e32322d8a846e087087e3e3a5468c0f1e3a6", "fields": {"pg_name": "Hollywood Reserve", "geo_shape": {"type": "Point", "coordinates": [144.6106901151688, -38.273802259564974]}, "geo_point_2d": [-38.2738022596, 144.610690115], "objectid": 251}, "geometry": {"type": "Point", "coordinates": [144.610690115, -38.2738022596]}, "record_timestamp": "2019-10-14T12:45:21.767+11:00"},{"datasetid": "playgrounds-city-of-greater-geelong", "recordid": "e5577e2b7669517ffa79f87c49c28454fae75ff3", "fields": {"pg_name": "Osprey Reserve", "geo_shape": {"type": "Point", "coordinates": [144.54668834440702, -38.27040647301287]}, "geo_point_2d": [-38.270406473, 144.546688344], "objectid": 257}, "geometry": {"type": "Point", "coordinates": [144.546688344, -38.270406473]}, "record_timestamp": "2019-10-14T12:45:21.767+11:00"},{"datasetid": "playgrounds-city-of-greater-geelong", "recordid": "d7b8209c9455f29f02c56c7218a98a82a1053841", "fields": {"pg_name": "Ocean Grove Park", "geo_shape": {"type": "Point", "coordinates": [144.52438378628594, -38.26574658660318]}, "geo_point_2d": [-38.2657465866, 144.524383786], "objectid": 261}, "geometry": {"type": "Point", "coordinates": [144.524383786, -38.2657465866]}, "record_timestamp": "2019-10-14T12:45:21.767+11:00"},{"datasetid": "playgrounds-city-of-greater-geelong", "recordid": "992aef945fa8e3f10f32e90349b75d6668b794df", "fields": {"pg_name": "Crane Reserve", "geo_shape": {"type": "Point", "coordinates": [144.52622978847003, -38.260296829190565]}, "geo_point_2d": [-38.2602968292, 144.526229788], "objectid": 262}, "geometry": {"type": "Point", "coordinates": [144.526229788, -38.2602968292]}, "record_timestamp": "2019-10-14T12:45:21.767+11:00"},{"datasetid": "playgrounds-city-of-greater-geelong", "recordid": "95d17c4e97b5a99177a3af6509214eeae8571460", "fields": {"pg_name": "Dare Reserve", "geo_shape": {"type": "Point", "coordinates": [144.51897726645083, -38.26856757539947]}, "geo_point_2d": [-38.2685675754, 144.518977266], "objectid": 264}, "geometry": {"type": "Point", "coordinates": [144.518977266, -38.2685675754]}, "record_timestamp": "2019-10-14T12:45:21.767+11:00"},{"datasetid": "playgrounds-city-of-greater-geelong", "recordid": "7503118fe71d7a501a1fc520892369c6b5786459", "fields": {"pg_name": "Lake Avenue Reserve", "geo_shape": {"type": "Point", "coordinates": [144.51070789027364, -38.258598354325706]}, "geo_point_2d": [-38.2585983543, 144.51070789], "objectid": 266}, "geometry": {"type": "Point", "coordinates": [144.51070789, -38.2585983543]}, "record_timestamp": "2019-10-14T12:45:21.767+11:00"},{"datasetid": "playgrounds-city-of-greater-geelong", "recordid": "726be053005d661a00d972b034d6327de58bfe56", "fields": {"pg_name": "Ocean Grove B", "geo_shape": {"type": "Point", "coordinates": [144.50922079484994, -38.26275945133857]}, "geo_point_2d": [-38.2627594513, 144.509220795], "objectid": 267}, "geometry": {"type": "Point", "coordinates": [144.509220795, -38.2627594513]}, "record_timestamp": "2019-10-14T12:45:21.767+11:00"},{"datasetid": "playgrounds-city-of-greater-geelong", "recordid": "e37f73e396340ebc1f22e214997939ad85e2f9b8", "fields": {"pg_name": "The Mews", "geo_shape": {"type": "Point", "coordinates": [144.49385337913228, -38.268670394220194]}, "geo_point_2d": [-38.2686703942, 144.493853379], "objectid": 271}, "geometry": {"type": "Point", "coordinates": [144.493853379, -38.2686703942]}, "record_timestamp": "2019-10-14T12:45:21.767+11:00"},{"datasetid": "playgrounds-city-of-greater-geelong", "recordid": "c01284b7c50a998404b46c3f9d8880156f9bbbe9", "fields": {"pg_name": "Barwon Community", "geo_shape": {"type": "Point", "coordinates": [144.48970872691632, -38.27230968426228]}, "geo_point_2d": [-38.2723096843, 144.489708727], "objectid": 272}, "geometry": {"type": "Point", "coordinates": [144.489708727, -38.2723096843]}, "record_timestamp": "2019-10-14T12:45:21.767+11:00"},{"datasetid": "playgrounds-city-of-greater-geelong", "recordid": "8cb07a5ed19fca3606bc8e79bceec294f0dde74d", "fields": {"pg_name": "Cowry Way Reserve", "geo_shape": {"type": "Point", "coordinates": [144.61538511596757, -38.26743176081579]}, "geo_point_2d": [-38.2674317608, 144.615385116], "objectid": 279}, "geometry": {"type": "Point", "coordinates": [144.615385116, -38.2674317608]}, "record_timestamp": "2019-10-14T12:45:21.767+11:00"},{"datasetid": "playgrounds-city-of-greater-geelong", "recordid": "7f2315a2c9bf34d6171dcd69ad1c50fa9b5b05a6", "fields": {"pg_name": "Empress Boulevard Reserve", "geo_shape": {"type": "Point", "coordinates": [144.54212213450964, -38.239065146407484]}, "geo_point_2d": [-38.2390651464, 144.542122135], "objectid": 280}, "geometry": {"type": "Point", "coordinates": [144.542122135, -38.2390651464]}, "record_timestamp": "2019-10-14T12:45:21.767+11:00"},{"datasetid": "playgrounds-city-of-greater-geelong", "recordid": "a8b0df5c726dc3f184a6aeea2c3b0d715b4090d7", "fields": {"pg_name": "Lara Skate Park", "geo_shape": {"type": "Point", "coordinates": [144.4102104871393, -38.022946224254554]}, "geo_point_2d": [-38.0229462243, 144.410210487], "objectid": 6}, "geometry": {"type": "Point", "coordinates": [144.410210487, -38.0229462243]}, "record_timestamp": "2019-10-14T12:45:21.767+11:00"},{"datasetid": "playgrounds-city-of-greater-geelong", "recordid": "ff55550df341179f3f9a7c4339a81a58d0271746", "fields": {"pg_name": "Lara Lake Reserve", "geo_shape": {"type": "Point", "coordinates": [144.39720570056159, -38.02555442037726]}, "geo_point_2d": [-38.0255544204, 144.397205701], "objectid": 10}, "geometry": {"type": "Point", "coordinates": [144.397205701, -38.0255544204]}, "record_timestamp": "2019-10-14T12:45:21.767+11:00"},{"datasetid": "playgrounds-city-of-greater-geelong", "recordid": "45ba6e3f84e7acc11eb9a1d03fa0c80d16052c68", "fields": {"pg_name": "Allister Reserve", "geo_shape": {"type": "Point", "coordinates": [144.38766815234624, -38.017075975572254]}, "geo_point_2d": [-38.0170759756, 144.387668152], "objectid": 13}, "geometry": {"type": "Point", "coordinates": [144.387668152, -38.0170759756]}, "record_timestamp": "2019-10-14T12:45:21.767+11:00"},{"datasetid": "playgrounds-city-of-greater-geelong", "recordid": "fc89901568450eb8fab80b5aff46483259973eb6", "fields": {"pg_name": "Norseman Reserve", "geo_shape": {"type": "Point", "coordinates": [144.38569665058984, -38.01541604676567]}, "geo_point_2d": [-38.0154160468, 144.385696651], "objectid": 14}, "geometry": {"type": "Point", "coordinates": [144.385696651, -38.0154160468]}, "record_timestamp": "2019-10-14T12:45:21.767+11:00"},{"datasetid": "playgrounds-city-of-greater-geelong", "recordid": "edd9386e01fdd8d003d5ea9652aa071c48257c71", "fields": {"pg_name": "Remington Reserve", "geo_shape": {"type": "Point", "coordinates": [144.35205006952955, -38.06758134288662]}, "geo_point_2d": [-38.0675813429, 144.35205007], "objectid": 22}, "geometry": {"type": "Point", "coordinates": [144.35205007, -38.0675813429]}, "record_timestamp": "2019-10-14T12:45:21.767+11:00"},{"datasetid": "playgrounds-city-of-greater-geelong", "recordid": "8850fcb50aee4d0da5b8a3a8123ace9bf4206ba6", "fields": {"pg_name": "Lincoln Reserve", "geo_shape": {"type": "Point", "coordinates": [144.35573895810245, -38.06846971463263]}, "geo_point_2d": [-38.0684697146, 144.355738958], "objectid": 23}, "geometry": {"type": "Point", "coordinates": [144.355738958, -38.0684697146]}, "record_timestamp": "2019-10-14T12:45:21.767+11:00"},{"datasetid": "playgrounds-city-of-greater-geelong", "recordid": "7ee7c9cfb16a52b92444a98ab28db21f34204cd6", "fields": {"pg_name": "Roswell Reserve", "geo_shape": {"type": "Point", "coordinates": [144.37220483027906, -38.063605268901036]}, "geo_point_2d": [-38.0636052689, 144.37220483], "objectid": 31}, "geometry": {"type": "Point", "coordinates": [144.37220483, -38.0636052689]}, "record_timestamp": "2019-10-14T12:45:21.767+11:00"},{"datasetid": "playgrounds-city-of-greater-geelong", "recordid": "1ab4b538edc3ab40d55adecfce6404b0fc55e96b", "fields": {"pg_name": "McShane Reserve", "geo_shape": {"type": "Point", "coordinates": [144.37600729595894, -38.06727607568069]}, "geo_point_2d": [-38.0672760757, 144.376007296], "objectid": 32}, "geometry": {"type": "Point", "coordinates": [144.376007296, -38.0672760757]}, "record_timestamp": "2019-10-14T12:45:21.767+11:00"},{"datasetid": "playgrounds-city-of-greater-geelong", "recordid": "17c2b8a11521d7bc4c1d359127f57c6866b1d6f5", "fields": {"pg_name": "Banksia Reserve", "geo_shape": {"type": "Point", "coordinates": [144.3389316125758, -38.079293795937964]}, "geo_point_2d": [-38.0792937959, 144.338931613], "objectid": 37}, "geometry": {"type": "Point", "coordinates": [144.338931613, -38.0792937959]}, "record_timestamp": "2019-10-14T12:45:21.767+11:00"},{"datasetid": "playgrounds-city-of-greater-geelong", "recordid": "53e9cd2d93736c00f5ba61acc42811591f050241", "fields": {"pg_name": "Flamingo Reserve", "geo_shape": {"type": "Point", "coordinates": [144.35274223646024, -38.08448650338473]}, "geo_point_2d": [-38.0844865034, 144.352742236], "objectid": 38}, "geometry": {"type": "Point", "coordinates": [144.352742236, -38.0844865034]}, "record_timestamp": "2019-10-14T12:45:21.767+11:00"},{"datasetid": "playgrounds-city-of-greater-geelong", "recordid": "c5bbba8aecfa701258572f919e9346d6147e6c0f", "fields": {"pg_name": "Ibis Reserve", "geo_shape": {"type": "Point", "coordinates": [144.34989599179403, -38.08447112022024]}, "geo_point_2d": [-38.0844711202, 144.349895992], "objectid": 39}, "geometry": {"type": "Point", "coordinates": [144.349895992, -38.0844711202]}, "record_timestamp": "2019-10-14T12:45:21.767+11:00"},{"datasetid": "playgrounds-city-of-greater-geelong", "recordid": "7754aeebff0432c63efd4bd37db2257372e62599", "fields": {"pg_name": "Fountn Friendship", "geo_shape": {"type": "Point", "coordinates": [144.33599847838124, -38.09287354668314]}, "geo_point_2d": [-38.0928735467, 144.335998478], "objectid": 44}, "geometry": {"type": "Point", "coordinates": [144.335998478, -38.0928735467]}, "record_timestamp": "2019-10-14T12:45:21.767+11:00"},{"datasetid": "playgrounds-city-of-greater-geelong", "recordid": "cbe72b2a373cc2666217a809e797337561f9155f", "fields": {"pg_name": "Corio Leisure Centre", "geo_shape": {"type": "Point", "coordinates": [144.33679511119183, -38.09109309656406]}, "geo_point_2d": [-38.0910930966, 144.336795111], "objectid": 46}, "geometry": {"type": "Point", "coordinates": [144.336795111, -38.0910930966]}, "record_timestamp": "2019-10-14T12:45:21.767+11:00"},{"datasetid": "playgrounds-city-of-greater-geelong", "recordid": "5dd0c5c4794537fccb12b792a7d70fe782da0a93", "fields": {"pg_name": "Kansas Reserve", "geo_shape": {"type": "Point", "coordinates": [144.3273572556417, -38.0953485009515]}, "geo_point_2d": [-38.095348501, 144.327357256], "objectid": 48}, "geometry": {"type": "Point", "coordinates": [144.327357256, -38.095348501]}, "record_timestamp": "2019-10-14T12:45:21.767+11:00"},{"datasetid": "playgrounds-city-of-greater-geelong", "recordid": "64ec596ac1d81b9c041aebb5ecc5e776171a7040", "fields": {"pg_name": "Myers Reserve Tennis Courts", "geo_shape": {"type": "Point", "coordinates": [144.32282685065488, -38.09625082046076]}, "geo_point_2d": [-38.0962508205, 144.322826851], "objectid": 49}, "geometry": {"type": "Point", "coordinates": [144.322826851, -38.0962508205]}, "record_timestamp": "2019-10-14T12:45:21.767+11:00"},{"datasetid": "playgrounds-city-of-greater-geelong", "recordid": "5b460836c0b72adfca9e1fd2631baea0eb108d7e", "fields": {"pg_name": "Nicholson Reserve", "geo_shape": {"type": "Point", "coordinates": [144.33913967829872, -38.09675997438509]}, "geo_point_2d": [-38.0967599744, 144.339139678], "objectid": 51}, "geometry": {"type": "Point", "coordinates": [144.339139678, -38.0967599744]}, "record_timestamp": "2019-10-14T12:45:21.767+11:00"},{"datasetid": "playgrounds-city-of-greater-geelong", "recordid": "53be9646d4b2b13bc8b86e6544589bdc4d074361", "fields": {"pg_name": "Hammersley Reserve", "geo_shape": {"type": "Point", "coordinates": [144.33435378839218, -38.10248006213233]}, "geo_point_2d": [-38.1024800621, 144.334353788], "objectid": 52}, "geometry": {"type": "Point", "coordinates": [144.334353788, -38.1024800621]}, "record_timestamp": "2019-10-14T12:45:21.767+11:00"},{"datasetid": "playgrounds-city-of-greater-geelong", "recordid": "60c6a084281ed25f90d96f938fa61e6007a21bb2", "fields": {"pg_name": "Pettitt Park West", "geo_shape": {"type": "Point", "coordinates": [144.32825119071373, -38.102749308678014]}, "geo_point_2d": [-38.1027493087, 144.328251191], "objectid": 53}, "geometry": {"type": "Point", "coordinates": [144.328251191, -38.1027493087]}, "record_timestamp": "2019-10-14T12:45:21.767+11:00"},{"datasetid": "playgrounds-city-of-greater-geelong", "recordid": "02edd13a783ae6efdfce6c4532b51c10941add14", "fields": {"pg_name": "Fairlie Reserve East", "geo_shape": {"type": "Point", "coordinates": [144.32586652339688, -38.12523738398966]}, "geo_point_2d": [-38.125237384, 144.325866523], "objectid": 64}, "geometry": {"type": "Point", "coordinates": [144.325866523, -38.125237384]}, "record_timestamp": "2019-10-14T12:45:21.767+11:00"},{"datasetid": "playgrounds-city-of-greater-geelong", "recordid": "0fb16d645702646323ed9abc372d0b0160aaa09d", "fields": {"pg_name": "Katoomba Reserve", "geo_shape": {"type": "Point", "coordinates": [144.31791429586863, -38.12618375658004]}, "geo_point_2d": [-38.1261837566, 144.317914296], "objectid": 65}, "geometry": {"type": "Point", "coordinates": [144.317914296, -38.1261837566]}, "record_timestamp": "2019-10-14T12:45:21.767+11:00"},{"datasetid": "playgrounds-city-of-greater-geelong", "recordid": "29210f493d7eb59c99927acb5f4a765c1c74bbe9", "fields": {"pg_name": "Maurice Reserve", "geo_shape": {"type": "Point", "coordinates": [144.32601709866506, -38.1302393096179]}, "geo_point_2d": [-38.1302393096, 144.326017099], "objectid": 66}, "geometry": {"type": "Point", "coordinates": [144.326017099, -38.1302393096]}, "record_timestamp": "2019-10-14T12:45:21.767+11:00"},{"datasetid": "playgrounds-city-of-greater-geelong", "recordid": "dc299028077093369646384e3cc3a90be3bab806", "fields": {"pg_name": "Hamlyn Park", "geo_shape": {"type": "Point", "coordinates": [144.33158394883802, -38.12607451616672]}, "geo_point_2d": [-38.1260745162, 144.331583949], "objectid": 67}, "geometry": {"type": "Point", "coordinates": [144.331583949, -38.1260745162]}, "record_timestamp": "2019-10-14T12:45:21.767+11:00"},{"datasetid": "playgrounds-city-of-greater-geelong", "recordid": "2ababd17642c1bfd4aa3418ee70a67c11943ac79", "fields": {"pg_name": "Peter Lowe Reserve", "geo_shape": {"type": "Point", "coordinates": [144.3310297543848, -38.135424047448716]}, "geo_point_2d": [-38.1354240474, 144.331029754], "objectid": 68}, "geometry": {"type": "Point", "coordinates": [144.331029754, -38.1354240474]}, "record_timestamp": "2019-10-14T12:45:21.767+11:00"},{"datasetid": "playgrounds-city-of-greater-geelong", "recordid": "7dfb33d1d1ab41853de8a38ea90ea9d36a6cd56c", "fields": {"pg_name": "Herne Hill Reserve East", "geo_shape": {"type": "Point", "coordinates": [144.32735548649507, -38.13833350232961]}, "geo_point_2d": [-38.1383335023, 144.327355486], "objectid": 69}, "geometry": {"type": "Point", "coordinates": [144.327355486, -38.1383335023]}, "record_timestamp": "2019-10-14T12:45:21.767+11:00"},{"datasetid": "playgrounds-city-of-greater-geelong", "recordid": "658bc87778b74d3a6fa313d81ed27c5bd5984d23", "fields": {"pg_name": "Bakers Reserve", "geo_shape": {"type": "Point", "coordinates": [144.33759333676036, -38.136075614254295]}, "geo_point_2d": [-38.1360756143, 144.337593337], "objectid": 71}, "geometry": {"type": "Point", "coordinates": [144.337593337, -38.1360756143]}, "record_timestamp": "2019-10-14T12:45:21.767+11:00"},{"datasetid": "playgrounds-city-of-greater-geelong", "recordid": "ea48fa2cd3a47166c63652f3f38e3e868ef05a1f", "fields": {"pg_name": "Sparrow Park East", "geo_shape": {"type": "Point", "coordinates": [144.34152614614274, -38.14091914126403]}, "geo_point_2d": [-38.1409191413, 144.341526146], "objectid": 74}, "geometry": {"type": "Point", "coordinates": [144.341526146, -38.1409191413]}, "record_timestamp": "2019-10-14T12:45:21.767+11:00"},{"datasetid": "playgrounds-city-of-greater-geelong", "recordid": "d23678b62a77bdf8e2522889171b979eaf0a1ec8", "fields": {"pg_name": "Elderslie Reserve", "geo_shape": {"type": "Point", "coordinates": [144.3239781352762, -38.14133952472989]}, "geo_point_2d": [-38.1413395247, 144.323978135], "objectid": 75}, "geometry": {"type": "Point", "coordinates": [144.323978135, -38.1413395247]}, "record_timestamp": "2019-10-14T12:45:21.767+11:00"},{"datasetid": "playgrounds-city-of-greater-geelong", "recordid": "5e2f595ba7573b6efcdab419b0849b5f6f66fafb", "fields": {"pg_name": "Western Beach", "geo_shape": {"type": "Point", "coordinates": [144.3575386799457, -38.140499237751776]}, "geo_point_2d": [-38.1404992378, 144.35753868], "objectid": 79}, "geometry": {"type": "Point", "coordinates": [144.35753868, -38.1404992378]}, "record_timestamp": "2019-10-14T12:45:21.767+11:00"},{"datasetid": "playgrounds-city-of-greater-geelong", "recordid": "0649f0ef8309e37eae920b9a8fc65b5b39d95024", "fields": {"pg_name": "Stradling Reserve", "geo_shape": {"type": "Point", "coordinates": [144.3536710306853, -38.13645469284859]}, "geo_point_2d": [-38.1364546928, 144.353671031], "objectid": 80}, "geometry": {"type": "Point", "coordinates": [144.353671031, -38.1364546928]}, "record_timestamp": "2019-10-14T12:45:21.767+11:00"},{"datasetid": "playgrounds-city-of-greater-geelong", "recordid": "bfb87c43af9d24cc487e4e65e0661dd117b628ae", "fields": {"pg_name": "Moorpanyal Park", "geo_shape": {"type": "Point", "coordinates": [144.3720994260559, -38.100598718394906]}, "geo_point_2d": [-38.1005987184, 144.372099426], "objectid": 85}, "geometry": {"type": "Point", "coordinates": [144.372099426, -38.1005987184]}, "record_timestamp": "2019-10-14T12:45:21.767+11:00"},{"datasetid": "playgrounds-city-of-greater-geelong", "recordid": "38b520587509fb5e3a3065619fe4a9f7b41e2cc2", "fields": {"pg_name": "Botanic Gardens Playground", "geo_shape": {"type": "Point", "coordinates": [144.37852296862576, -38.14838278440845]}, "geo_point_2d": [-38.1483827844, 144.378522969], "objectid": 93}, "geometry": {"type": "Point", "coordinates": [144.378522969, -38.1483827844]}, "record_timestamp": "2019-10-14T12:45:21.767+11:00"},{"datasetid": "playgrounds-city-of-greater-geelong", "recordid": "81fba8e0e21ffaa69991525affa9377a6e42e950", "fields": {"pg_name": "Landy Field", "geo_shape": {"type": "Point", "coordinates": [144.36012080511387, -38.1662380991947]}, "geo_point_2d": [-38.1662380992, 144.360120805], "objectid": 99}, "geometry": {"type": "Point", "coordinates": [144.360120805, -38.1662380992]}, "record_timestamp": "2019-10-14T12:45:21.767+11:00"},{"datasetid": "playgrounds-city-of-greater-geelong", "recordid": "57e3b914949be02e50936294bdc63a147c7c99d0", "fields": {"pg_name": "Kardinia (1)", "geo_shape": {"type": "Point", "coordinates": [144.3521066412411, -38.15578968841513]}, "geo_point_2d": [-38.1557896884, 144.352106641], "objectid": 103}, "geometry": {"type": "Point", "coordinates": [144.352106641, -38.1557896884]}, "record_timestamp": "2019-10-14T12:45:21.767+11:00"},{"datasetid": "playgrounds-city-of-greater-geelong", "recordid": "f81ef653d8a403df14e8929e969202b2c8151940", "fields": {"pg_name": "Seaview Park", "geo_shape": {"type": "Point", "coordinates": [144.34571704781166, -38.16570374490239]}, "geo_point_2d": [-38.1657037449, 144.345717048], "objectid": 109}, "geometry": {"type": "Point", "coordinates": [144.345717048, -38.1657037449]}, "record_timestamp": "2019-10-14T12:45:21.767+11:00"},{"datasetid": "playgrounds-city-of-greater-geelong", "recordid": "acad1b9a53567f066ca28afa7ebf1ba1ee9428b6", "fields": {"pg_name": "Moorak Park", "geo_shape": {"type": "Point", "coordinates": [144.34000077554043, -38.15421911109599]}, "geo_point_2d": [-38.1542191111, 144.340000776], "objectid": 116}, "geometry": {"type": "Point", "coordinates": [144.340000776, -38.1542191111]}, "record_timestamp": "2019-10-14T12:45:21.767+11:00"},{"datasetid": "playgrounds-city-of-greater-geelong", "recordid": "596d64c948f76f15eb8b010faa5acc3f3fbc75d3", "fields": {"pg_name": "Kenwith Park", "geo_shape": {"type": "Point", "coordinates": [144.34343564772817, -38.14822928352494]}, "geo_point_2d": [-38.1482292835, 144.343435648], "objectid": 117}, "geometry": {"type": "Point", "coordinates": [144.343435648, -38.1482292835]}, "record_timestamp": "2019-10-14T12:45:21.767+11:00"},{"datasetid": "playgrounds-city-of-greater-geelong", "recordid": "1e41d94850837fa8b8649d9014d2b7f7f812b7ce", "fields": {"pg_name": "Queens Park", "geo_shape": {"type": "Point", "coordinates": [144.32037631388596, -38.148823839468015]}, "geo_point_2d": [-38.1488238395, 144.320376314], "objectid": 122}, "geometry": {"type": "Point", "coordinates": [144.320376314, -38.1488238395]}, "record_timestamp": "2019-10-14T12:45:21.767+11:00"},{"datasetid": "playgrounds-city-of-greater-geelong", "recordid": "a1434559b3831c81eeec6e918946b43ecbaf90d6", "fields": {"pg_name": "Cannes Reserve", "geo_shape": {"type": "Point", "coordinates": [144.31578825471468, -38.152311695783425]}, "geo_point_2d": [-38.1523116958, 144.315788255], "objectid": 123}, "geometry": {"type": "Point", "coordinates": [144.315788255, -38.1523116958]}, "record_timestamp": "2019-10-14T12:45:21.767+11:00"},{"datasetid": "playgrounds-city-of-greater-geelong", "recordid": "4c87f42dd0a319864f6bc487e2778392800a62f4", "fields": {"pg_name": "Thornbury Reserve", "geo_shape": {"type": "Point", "coordinates": [144.31780145667796, -38.164851745609994]}, "geo_point_2d": [-38.1648517456, 144.317801457], "objectid": 126}, "geometry": {"type": "Point", "coordinates": [144.317801457, -38.1648517456]}, "record_timestamp": "2019-10-14T12:45:21.767+11:00"},{"datasetid": "playgrounds-city-of-greater-geelong", "recordid": "d02cbe0dfc0959b9307c5f2e0e4f736a924a830a", "fields": {"pg_name": "Ferndale Reserve", "geo_shape": {"type": "Point", "coordinates": [144.32617936098785, -38.169129014136914]}, "geo_point_2d": [-38.1691290141, 144.326179361], "objectid": 128}, "geometry": {"type": "Point", "coordinates": [144.326179361, -38.1691290141]}, "record_timestamp": "2019-10-14T12:45:21.767+11:00"},{"datasetid": "playgrounds-city-of-greater-geelong", "recordid": "cb953230d506d926a0a5084655dcf48ef6aee6b6", "fields": {"pg_name": "Bennett Reserve", "geo_shape": {"type": "Point", "coordinates": [144.3160627877359, -38.168161883872855]}, "geo_point_2d": [-38.1681618839, 144.316062788], "objectid": 130}, "geometry": {"type": "Point", "coordinates": [144.316062788, -38.1681618839]}, "record_timestamp": "2019-10-14T12:45:21.767+11:00"},{"datasetid": "playgrounds-city-of-greater-geelong", "recordid": "665820338e3d5e5a086124131797ede1421509e2", "fields": {"pg_name": "Winter Reserve", "geo_shape": {"type": "Point", "coordinates": [144.34119255553512, -38.18459302430848]}, "geo_point_2d": [-38.1845930243, 144.341192556], "objectid": 145}, "geometry": {"type": "Point", "coordinates": [144.341192556, -38.1845930243]}, "record_timestamp": "2019-10-14T12:45:21.767+11:00"},{"datasetid": "playgrounds-city-of-greater-geelong", "recordid": "f9d4989ff576c6ff4e796ef16c8cc49a3fdce921", "fields": {"pg_name": "Elinbank Reserve", "geo_shape": {"type": "Point", "coordinates": [144.3368885037306, -38.201292478802635]}, "geo_point_2d": [-38.2012924788, 144.336888504], "objectid": 156}, "geometry": {"type": "Point", "coordinates": [144.336888504, -38.2012924788]}, "record_timestamp": "2019-10-14T12:45:21.767+11:00"},{"datasetid": "playgrounds-city-of-greater-geelong", "recordid": "f34c677cf9d2eb81ca188b88b5b6e0ab17758de3", "fields": {"pg_name": "Coolabah Park", "geo_shape": {"type": "Point", "coordinates": [144.32141756253472, -38.20629001041013]}, "geo_point_2d": [-38.2062900104, 144.321417563], "objectid": 157}, "geometry": {"type": "Point", "coordinates": [144.321417563, -38.2062900104]}, "record_timestamp": "2019-10-14T12:45:21.767+11:00"},{"datasetid": "playgrounds-city-of-greater-geelong", "recordid": "5b3f83d3328e914168d5e47787da11b3b16027a8", "fields": {"pg_name": "John Croft Reserve", "geo_shape": {"type": "Point", "coordinates": [144.33414257057785, -38.20872905582505]}, "geo_point_2d": [-38.2087290558, 144.334142571], "objectid": 159}, "geometry": {"type": "Point", "coordinates": [144.334142571, -38.2087290558]}, "record_timestamp": "2019-10-14T12:45:21.767+11:00"},{"datasetid": "playgrounds-city-of-greater-geelong", "recordid": "de441c6318050557023e65ea0ddbfa88b4dfda63", "fields": {"pg_name": "Hansen Reserve", "geo_shape": {"type": "Point", "coordinates": [144.3432930683876, -38.20881154914145]}, "geo_point_2d": [-38.2088115491, 144.343293068], "objectid": 162}, "geometry": {"type": "Point", "coordinates": [144.343293068, -38.2088115491]}, "record_timestamp": "2019-10-14T12:45:21.767+11:00"},{"datasetid": "playgrounds-city-of-greater-geelong", "recordid": "ff0c73d814596c9e6daf4e195d4757ea4c2db330", "fields": {"pg_name": "Glenbrae Reserve", "geo_shape": {"type": "Point", "coordinates": [144.3448007797784, -38.18804845631462]}, "geo_point_2d": [-38.1880484563, 144.34480078], "objectid": 165}, "geometry": {"type": "Point", "coordinates": [144.34480078, -38.1880484563]}, "record_timestamp": "2019-10-14T12:45:21.767+11:00"},{"datasetid": "playgrounds-city-of-greater-geelong", "recordid": "91002c028a7f6ca81304e4b149555d6411d615ec", "fields": {"pg_name": "Francis Reserve", "geo_shape": {"type": "Point", "coordinates": [144.3469784110133, -38.187746327866556]}, "geo_point_2d": [-38.1877463279, 144.346978411], "objectid": 166}, "geometry": {"type": "Point", "coordinates": [144.346978411, -38.1877463279]}, "record_timestamp": "2019-10-14T12:45:21.767+11:00"},{"datasetid": "playgrounds-city-of-greater-geelong", "recordid": "fb5d4ac3d2405e681f2a0e659e13eef41f8c9ca8", "fields": {"pg_name": "Grinter Reserve West", "geo_shape": {"type": "Point", "coordinates": [144.4020351891657, -38.17904312620613]}, "geo_point_2d": [-38.1790431262, 144.402035189], "objectid": 174}, "geometry": {"type": "Point", "coordinates": [144.402035189, -38.1790431262]}, "record_timestamp": "2019-10-14T12:45:21.767+11:00"},{"datasetid": "playgrounds-city-of-greater-geelong", "recordid": "9fa3651670b689a08cca176909822531e323cbd0", "fields": {"pg_name": "Whittington/Freedom", "geo_shape": {"type": "Point", "coordinates": [144.39686469209494, -38.1786806780008]}, "geo_point_2d": [-38.178680678, 144.396864692], "objectid": 177}, "geometry": {"type": "Point", "coordinates": [144.396864692, -38.178680678]}, "record_timestamp": "2019-10-14T12:45:21.767+11:00"},{"datasetid": "playgrounds-city-of-greater-geelong", "recordid": "9e8ea891e217d49e023b51ae6f7ca28b98f2000c", "fields": {"pg_name": "Lancaster Reserve", "geo_shape": {"type": "Point", "coordinates": [144.39465882665908, -38.17296767268417]}, "geo_point_2d": [-38.1729676727, 144.394658827], "objectid": 178}, "geometry": {"type": "Point", "coordinates": [144.394658827, -38.1729676727]}, "record_timestamp": "2019-10-14T12:45:21.767+11:00"},{"datasetid": "playgrounds-city-of-greater-geelong", "recordid": "b9f7d1868d60f67749c8f3e238f355c348049f15", "fields": {"pg_name": "Pitman Avenue Reserve", "geo_shape": {"type": "Point", "coordinates": [144.38939778244728, -38.17178735162505]}, "geo_point_2d": [-38.1717873516, 144.389397782], "objectid": 180}, "geometry": {"type": "Point", "coordinates": [144.389397782, -38.1717873516]}, "record_timestamp": "2019-10-14T12:45:21.767+11:00"},{"datasetid": "playgrounds-city-of-greater-geelong", "recordid": "54ff09f472f47c7ee6820b01eef8e1df2ee53dc1", "fields": {"pg_name": "Vincent Park", "geo_shape": {"type": "Point", "coordinates": [144.39012521970346, -38.17367225128987]}, "geo_point_2d": [-38.1736722513, 144.39012522], "objectid": 181}, "geometry": {"type": "Point", "coordinates": [144.39012522, -38.1736722513]}, "record_timestamp": "2019-10-14T12:45:21.767+11:00"},{"datasetid": "playgrounds-city-of-greater-geelong", "recordid": "85b205e5d0dc5c80119a6339521e2d0037bb28fb", "fields": {"pg_name": "R. Sharp Reserve", "geo_shape": {"type": "Point", "coordinates": [144.3879856334355, -38.17744562018853]}, "geo_point_2d": [-38.1774456202, 144.387985633], "objectid": 182}, "geometry": {"type": "Point", "coordinates": [144.387985633, -38.1774456202]}, "record_timestamp": "2019-10-14T12:45:21.767+11:00"},{"datasetid": "playgrounds-city-of-greater-geelong", "recordid": "da92eab5415f379d3abdf9a688c79d1e675ee4b8", "fields": {"pg_name": "Janet Reserve", "geo_shape": {"type": "Point", "coordinates": [144.39106952426215, -38.166654060423056]}, "geo_point_2d": [-38.1666540604, 144.391069524], "objectid": 190}, "geometry": {"type": "Point", "coordinates": [144.391069524, -38.1666540604]}, "record_timestamp": "2019-10-14T12:45:21.767+11:00"},{"datasetid": "playgrounds-city-of-greater-geelong", "recordid": "48af248cc3277ccf90b1a30afb47644072381012", "fields": {"pg_name": "Hibiscus Reserve", "geo_shape": {"type": "Point", "coordinates": [144.39344349372433, -38.168088851884185]}, "geo_point_2d": [-38.1680888519, 144.393443494], "objectid": 192}, "geometry": {"type": "Point", "coordinates": [144.393443494, -38.1680888519]}, "record_timestamp": "2019-10-14T12:45:21.767+11:00"},{"datasetid": "playgrounds-city-of-greater-geelong", "recordid": "ed121e9f10654f2ffd34e4b3b5c25cc65bf00feb", "fields": {"pg_name": "Lucas Reserve", "geo_shape": {"type": "Point", "coordinates": [144.3947777733218, -38.16397497989194]}, "geo_point_2d": [-38.1639749799, 144.394777773], "objectid": 193}, "geometry": {"type": "Point", "coordinates": [144.394777773, -38.1639749799]}, "record_timestamp": "2019-10-14T12:45:21.767+11:00"},{"datasetid": "playgrounds-city-of-greater-geelong", "recordid": "a09b7c22322923c57b8389d8c5d0cfbc28a7c59b", "fields": {"pg_name": "Moolap Reserve", "geo_shape": {"type": "Point", "coordinates": [144.42231481878247, -38.169577267215324]}, "geo_point_2d": [-38.1695772672, 144.422314819], "objectid": 198}, "geometry": {"type": "Point", "coordinates": [144.422314819, -38.1695772672]}, "record_timestamp": "2019-10-14T12:45:21.767+11:00"},{"datasetid": "playgrounds-city-of-greater-geelong", "recordid": "876c69c87d3fb575362eef32a1c3e688e398d594", "fields": {"pg_name": "Leopold Mem.", "geo_shape": {"type": "Point", "coordinates": [144.45654036164396, -38.18642130521758]}, "geo_point_2d": [-38.1864213052, 144.456540362], "objectid": 200}, "geometry": {"type": "Point", "coordinates": [144.456540362, -38.1864213052]}, "record_timestamp": "2019-10-14T12:45:21.767+11:00"},{"datasetid": "playgrounds-city-of-greater-geelong", "recordid": "475da9b50dfc8141c54802d3a2fcc836264f2272", "fields": {"pg_name": "Sundial Drive Reserve", "geo_shape": {"type": "Point", "coordinates": [144.5714046935775, -38.16327389319153]}, "geo_point_2d": [-38.1632738932, 144.571404694], "objectid": 219}, "geometry": {"type": "Point", "coordinates": [144.571404694, -38.1632738932]}, "record_timestamp": "2019-10-14T12:45:21.767+11:00"},{"datasetid": "playgrounds-city-of-greater-geelong", "recordid": "832e0a88dc24b04b98717b403388e61ee984dae6", "fields": {"pg_name": "Drysdale/Clifton Spring Skate", "geo_shape": {"type": "Point", "coordinates": [144.55415989639383, -38.1623226237756]}, "geo_point_2d": [-38.1623226238, 144.554159896], "objectid": 221}, "geometry": {"type": "Point", "coordinates": [144.554159896, -38.1623226238]}, "record_timestamp": "2019-10-14T12:45:21.767+11:00"},{"datasetid": "playgrounds-city-of-greater-geelong", "recordid": "159725e482959ba8bcaa1efac618fab203ebb9fd", "fields": {"pg_name": "Almerta Reserve", "geo_shape": {"type": "Point", "coordinates": [144.56367601194128, -38.16309011264727]}, "geo_point_2d": [-38.1630901126, 144.563676012], "objectid": 223}, "geometry": {"type": "Point", "coordinates": [144.563676012, -38.1630901126]}, "record_timestamp": "2019-10-14T12:45:21.767+11:00"},{"datasetid": "playgrounds-city-of-greater-geelong", "recordid": "3bf6e6e446cbf6fbc3a0331c58e2b55431a5f219", "fields": {"pg_name": "Clear Water Reserve", "geo_shape": {"type": "Point", "coordinates": [144.57143917094191, -38.155115867533645]}, "geo_point_2d": [-38.1551158675, 144.571439171], "objectid": 225}, "geometry": {"type": "Point", "coordinates": [144.571439171, -38.1551158675]}, "record_timestamp": "2019-10-14T12:45:21.767+11:00"},{"datasetid": "playgrounds-city-of-greater-geelong", "recordid": "8810c47e8999f7b6579a53d4168a2f787dc73de6", "fields": {"pg_name": "Country Club", "geo_shape": {"type": "Point", "coordinates": [144.5749225738313, -38.14801891716012]}, "geo_point_2d": [-38.1480189172, 144.574922574], "objectid": 226}, "geometry": {"type": "Point", "coordinates": [144.574922574, -38.1480189172]}, "record_timestamp": "2019-10-14T12:45:21.767+11:00"},{"datasetid": "playgrounds-city-of-greater-geelong", "recordid": "f2d98e428e4cbabc80dc9bda0b8c77c077cb9149", "fields": {"pg_name": "Drysdale-North", "geo_shape": {"type": "Point", "coordinates": [144.56176428169096, -38.173613118644994]}, "geo_point_2d": [-38.1736131186, 144.561764282], "objectid": 228}, "geometry": {"type": "Point", "coordinates": [144.561764282, -38.1736131186]}, "record_timestamp": "2019-10-14T12:45:21.767+11:00"},{"datasetid": "playgrounds-city-of-greater-geelong", "recordid": "e7b9d317890e975538923995d0cf13936e70c141", "fields": {"pg_name": "Hawthorn Reserve", "geo_shape": {"type": "Point", "coordinates": [144.63120394382395, -38.120701826927494]}, "geo_point_2d": [-38.1207018269, 144.631203944], "objectid": 230}, "geometry": {"type": "Point", "coordinates": [144.631203944, -38.1207018269]}, "record_timestamp": "2019-10-14T12:45:21.767+11:00"},{"datasetid": "playgrounds-city-of-greater-geelong", "recordid": "45d928dedb7da31d34ecaa2601deb08df67e72ba", "fields": {"pg_name": "Nottingham Reserve", "geo_shape": {"type": "Point", "coordinates": [144.64319695384202, -38.11910261726264]}, "geo_point_2d": [-38.1191026173, 144.643196954], "objectid": 232}, "geometry": {"type": "Point", "coordinates": [144.643196954, -38.1191026173]}, "record_timestamp": "2019-10-14T12:45:21.767+11:00"},{"datasetid": "playgrounds-city-of-greater-geelong", "recordid": "7dba6509c7c4720540896a50ade2727bb4603319", "fields": {"pg_name": "W.G.Little Reserve", "geo_shape": {"type": "Point", "coordinates": [144.6541174980812, -38.11451658542203]}, "geo_point_2d": [-38.1145165854, 144.654117498], "objectid": 236}, "geometry": {"type": "Point", "coordinates": [144.654117498, -38.1145165854]}, "record_timestamp": "2019-10-14T12:45:21.767+11:00"},{"datasetid": "playgrounds-city-of-greater-geelong", "recordid": "497b30a74f25a66da546a79b72c660b5a8051b53", "fields": {"pg_name": "Portarlington Skate Park", "geo_shape": {"type": "Point", "coordinates": [144.65569092994625, -38.114807505122705]}, "geo_point_2d": [-38.1148075051, 144.65569093], "objectid": 237}, "geometry": {"type": "Point", "coordinates": [144.65569093, -38.1148075051]}, "record_timestamp": "2019-10-14T12:45:21.767+11:00"},{"datasetid": "playgrounds-city-of-greater-geelong", "recordid": "49980c72befd2761c7e6fb0f68aeff869a83aa78", "fields": {"pg_name": "Seaforth Reserve", "geo_shape": {"type": "Point", "coordinates": [144.67708779580408, -38.11729075972544]}, "geo_point_2d": [-38.1172907597, 144.677087796], "objectid": 238}, "geometry": {"type": "Point", "coordinates": [144.677087796, -38.1172907597]}, "record_timestamp": "2019-10-14T12:45:21.767+11:00"},{"datasetid": "playgrounds-city-of-greater-geelong", "recordid": "0c815e3262a4e2050f03b23ecd6d76b33447e7fc", "fields": {"pg_name": "Leviens Reserve", "geo_shape": {"type": "Point", "coordinates": [144.71180277310737, -38.179301232414836]}, "geo_point_2d": [-38.1793012324, 144.711802773], "objectid": 244}, "geometry": {"type": "Point", "coordinates": [144.711802773, -38.1793012324]}, "record_timestamp": "2019-10-14T12:45:21.767+11:00"},{"datasetid": "playgrounds-city-of-greater-geelong", "recordid": "860da0d69d9eb658c0eb274c64d8a80d1d735583", "fields": {"pg_name": "Henty Reserve", "geo_shape": {"type": "Point", "coordinates": [144.70368604402367, -38.17540838353581]}, "geo_point_2d": [-38.1754083835, 144.703686044], "objectid": 248}, "geometry": {"type": "Point", "coordinates": [144.703686044, -38.1754083835]}, "record_timestamp": "2019-10-14T12:45:21.767+11:00"},{"datasetid": "playgrounds-city-of-greater-geelong", "recordid": "b3df545f872a3b1e6a6f50609838d00e3f70bdf3", "fields": {"pg_name": "Kingston Downs Reserve", "geo_shape": {"type": "Point", "coordinates": [144.5465795012491, -38.253924815317994]}, "geo_point_2d": [-38.2539248153, 144.546579501], "objectid": 252}, "geometry": {"type": "Point", "coordinates": [144.546579501, -38.2539248153]}, "record_timestamp": "2019-10-14T12:45:21.767+11:00"},{"datasetid": "playgrounds-city-of-greater-geelong", "recordid": "279bf14a795e2b51286d846d43e70ad0e804b19e", "fields": {"pg_name": "Ocean Grove Skatepark", "geo_shape": {"type": "Point", "coordinates": [144.53960581236922, -38.25834236577511]}, "geo_point_2d": [-38.2583423658, 144.539605812], "objectid": 254}, "geometry": {"type": "Point", "coordinates": [144.539605812, -38.2583423658]}, "record_timestamp": "2019-10-14T12:45:21.767+11:00"},{"datasetid": "playgrounds-city-of-greater-geelong", "recordid": "c1d2307c181ca08a671f041514be8c8a7878e6f9", "fields": {"pg_name": "Shell Road Reseeve", "geo_shape": {"type": "Point", "coordinates": [144.53957151196863, -38.25932480584407]}, "geo_point_2d": [-38.2593248058, 144.539571512], "objectid": 255}, "geometry": {"type": "Point", "coordinates": [144.539571512, -38.2593248058]}, "record_timestamp": "2019-10-14T12:45:21.767+11:00"},{"datasetid": "playgrounds-city-of-greater-geelong", "recordid": "37d3fd49d4fdca022d3d27c8f1041d28b4a6287d", "fields": {"pg_name": "Collendina Reserve", "geo_shape": {"type": "Point", "coordinates": [144.54790917009856, -38.267898662065114]}, "geo_point_2d": [-38.2678986621, 144.54790917], "objectid": 256}, "geometry": {"type": "Point", "coordinates": [144.54790917, -38.2678986621]}, "record_timestamp": "2019-10-14T12:45:21.767+11:00"},{"datasetid": "playgrounds-city-of-greater-geelong", "recordid": "946dce1bfd4291c836db14ca573c2fd3c182fcad", "fields": {"pg_name": "Arthur Pow Reserve", "geo_shape": {"type": "Point", "coordinates": [144.5322919532146, -38.26294589497547]}, "geo_point_2d": [-38.262945895, 144.532291953], "objectid": 258}, "geometry": {"type": "Point", "coordinates": [144.532291953, -38.262945895]}, "record_timestamp": "2019-10-14T12:45:21.767+11:00"},{"datasetid": "playgrounds-city-of-greater-geelong", "recordid": "cc4835d804d19b39bb6275aecaa3c37d0ab4668a", "fields": {"pg_name": "Ocean Grove Tennis Club Rooms", "geo_shape": {"type": "Point", "coordinates": [144.5309556766198, -38.2630420261335]}, "geo_point_2d": [-38.2630420261, 144.530955677], "objectid": 259}, "geometry": {"type": "Point", "coordinates": [144.530955677, -38.2630420261]}, "record_timestamp": "2019-10-14T12:45:21.767+11:00"},{"datasetid": "playgrounds-city-of-greater-geelong", "recordid": "d83f67c7d1db1b03ea92716349623e40ee2963c4", "fields": {"pg_name": "Ocean Grove Mem", "geo_shape": {"type": "Point", "coordinates": [144.5291955427811, -38.26438555450654]}, "geo_point_2d": [-38.2643855545, 144.529195543], "objectid": 260}, "geometry": {"type": "Point", "coordinates": [144.529195543, -38.2643855545]}, "record_timestamp": "2019-10-14T12:45:21.767+11:00"},{"datasetid": "playgrounds-city-of-greater-geelong", "recordid": "3bc8e60ae7612f5715a70e7a1f9ed4ecaa4a6aef", "fields": {"pg_name": "Cuthbertson Reserve", "geo_shape": {"type": "Point", "coordinates": [144.52027554155006, -38.25976500606825]}, "geo_point_2d": [-38.2597650061, 144.520275542], "objectid": 265}, "geometry": {"type": "Point", "coordinates": [144.520275542, -38.2597650061]}, "record_timestamp": "2019-10-14T12:45:21.767+11:00"},{"datasetid": "playgrounds-city-of-greater-geelong", "recordid": "f153ccb068fc042b8b276e21d71ade5bdd49e3d9", "fields": {"pg_name": "Frank Ellis Reserve", "geo_shape": {"type": "Point", "coordinates": [144.49445731561715, -38.28176969005997]}, "geo_point_2d": [-38.2817696901, 144.494457316], "objectid": 268}, "geometry": {"type": "Point", "coordinates": [144.494457316, -38.2817696901]}, "record_timestamp": "2019-10-14T12:45:21.767+11:00"},{"datasetid": "playgrounds-city-of-greater-geelong", "recordid": "9dd34cf9e7ca6f9630b33e9bee2b50613c725da8", "fields": {"pg_name": "Barwon Heads Skatepark", "geo_shape": {"type": "Point", "coordinates": [144.48905957387854, -38.27320677002327]}, "geo_point_2d": [-38.27320677, 144.489059574], "objectid": 273}, "geometry": {"type": "Point", "coordinates": [144.489059574, -38.27320677]}, "record_timestamp": "2019-10-14T12:45:21.767+11:00"},{"datasetid": "playgrounds-city-of-greater-geelong", "recordid": "7209cab1a5ae8be5ce2ce87e7b8db60b2958ceba", "fields": {"pg_name": "Brompton Avenue Reserve", "geo_shape": {"type": "Point", "coordinates": [144.54794876710417, -38.1730510384422]}, "geo_point_2d": [-38.1730510384, 144.547948767], "objectid": 276}, "geometry": {"type": "Point", "coordinates": [144.547948767, -38.1730510384]}, "record_timestamp": "2019-10-14T12:45:21.767+11:00"},{"datasetid": "playgrounds-city-of-greater-geelong", "recordid": "99dea6f9c4fbd4bc1780a0f6855620aee5b2ee34", "fields": {"pg_name": "Arkington Rise Reserve", "geo_shape": {"type": "Point", "coordinates": [144.64935284878476, -38.123043000002696]}, "geo_point_2d": [-38.123043, 144.649352849], "objectid": 277}, "geometry": {"type": "Point", "coordinates": [144.649352849, -38.123043]}, "record_timestamp": "2019-10-14T12:45:21.767+11:00"},{"datasetid": "playgrounds-city-of-greater-geelong", "recordid": "9b8a237ac597e8952b15d4e2c3093ebfb6bb2a88", "fields": {"pg_name": "Grieves Avenue Reserve", "geo_shape": {"type": "Point", "coordinates": [144.710544897238, -38.143045251833485]}, "geo_point_2d": [-38.1430452518, 144.710544897], "objectid": 278}, "geometry": {"type": "Point", "coordinates": [144.710544897, -38.1430452518]}, "record_timestamp": "2019-10-14T12:45:21.767+11:00"},{"datasetid": "playgrounds-city-of-greater-geelong", "recordid": "8dfefcc9bd5d71ae6c58a72c5b81a2c04d69f3a0", "fields": {"pg_name": "Oakdene Boulevard Reserve", "geo_shape": {"type": "Point", "coordinates": [144.55126896726009, -38.25111217670491]}, "geo_point_2d": [-38.2511121767, 144.551268967], "objectid": 281}, "geometry": {"type": "Point", "coordinates": [144.551268967, -38.2511121767]}, "record_timestamp": "2019-10-14T12:45:21.767+11:00"},{"datasetid": "playgrounds-city-of-greater-geelong", "recordid": "3511ae06a013394e1511ee6f678f50ad02236993", "fields": {"pg_name": "Austin Park", "geo_shape": {"type": "Point", "coordinates": [144.41042751101244, -38.02277735450931]}, "geo_point_2d": [-38.0227773545, 144.410427511], "objectid": 5}, "geometry": {"type": "Point", "coordinates": [144.410427511, -38.0227773545]}, "record_timestamp": "2019-10-14T12:45:21.767+11:00"},{"datasetid": "playgrounds-city-of-greater-geelong", "recordid": "cf3a60dca9fb285ad1a1b4901823d27ae41a3667", "fields": {"pg_name": "Bank Reserve", "geo_shape": {"type": "Point", "coordinates": [144.40004967572773, -38.024498832765374]}, "geo_point_2d": [-38.0244988328, 144.400049676], "objectid": 9}, "geometry": {"type": "Point", "coordinates": [144.400049676, -38.0244988328]}, "record_timestamp": "2019-10-14T12:45:21.767+11:00"},{"datasetid": "playgrounds-city-of-greater-geelong", "recordid": "46c40fdc9204078367b9a770863d6bc50941fa98", "fields": {"pg_name": "Abe Wood Reserve", "geo_shape": {"type": "Point", "coordinates": [144.31234198594848, -38.05692127390677]}, "geo_point_2d": [-38.0569212739, 144.312341986], "objectid": 17}, "geometry": {"type": "Point", "coordinates": [144.312341986, -38.0569212739]}, "record_timestamp": "2019-10-14T12:45:21.767+11:00"},{"datasetid": "playgrounds-city-of-greater-geelong", "recordid": "bf3beb5a985faef2bf4f089428aec1eefaf7daa9", "fields": {"pg_name": "Cohuna Reserve", "geo_shape": {"type": "Point", "coordinates": [144.34693785478834, -38.06699877140686]}, "geo_point_2d": [-38.0669987714, 144.346937855], "objectid": 18}, "geometry": {"type": "Point", "coordinates": [144.346937855, -38.0669987714]}, "record_timestamp": "2019-10-14T12:45:21.767+11:00"},{"datasetid": "playgrounds-city-of-greater-geelong", "recordid": "4003a0a0f24057e5e19611957642ae6b874145ad", "fields": {"pg_name": "Clunies Reserve", "geo_shape": {"type": "Point", "coordinates": [144.34157798881984, -38.06768938153239]}, "geo_point_2d": [-38.0676893815, 144.341577989], "objectid": 19}, "geometry": {"type": "Point", "coordinates": [144.341577989, -38.0676893815]}, "record_timestamp": "2019-10-14T12:45:21.767+11:00"},{"datasetid": "playgrounds-city-of-greater-geelong", "recordid": "72b8e36fb02fb8580074e0b8e12f2ba56c89fae4", "fields": {"pg_name": "Landale Court Reserve", "geo_shape": {"type": "Point", "coordinates": [144.3461423752896, -38.07005706725533]}, "geo_point_2d": [-38.0700570673, 144.346142375], "objectid": 20}, "geometry": {"type": "Point", "coordinates": [144.346142375, -38.0700570673]}, "record_timestamp": "2019-10-14T12:45:21.767+11:00"},{"datasetid": "playgrounds-city-of-greater-geelong", "recordid": "b4029510a4ce74adb4c0f9546e37ad4ada26793d", "fields": {"pg_name": "Rodbrough Reserve", "geo_shape": {"type": "Point", "coordinates": [144.35980050493396, -38.06816208363578]}, "geo_point_2d": [-38.0681620836, 144.359800505], "objectid": 24}, "geometry": {"type": "Point", "coordinates": [144.359800505, -38.0681620836]}, "record_timestamp": "2019-10-14T12:45:21.767+11:00"},{"datasetid": "playgrounds-city-of-greater-geelong", "recordid": "a8e6605d286424579c0d6188899ee0636077219c", "fields": {"pg_name": "Donax Reserve", "geo_shape": {"type": "Point", "coordinates": [144.36389375159078, -38.06999680785368]}, "geo_point_2d": [-38.0699968079, 144.363893752], "objectid": 25}, "geometry": {"type": "Point", "coordinates": [144.363893752, -38.0699968079]}, "record_timestamp": "2019-10-14T12:45:21.767+11:00"},{"datasetid": "playgrounds-city-of-greater-geelong", "recordid": "94828f35f652885b4e78387769913ab9514691c9", "fields": {"pg_name": "Rotella Reserve", "geo_shape": {"type": "Point", "coordinates": [144.36505255159096, -38.07181045390512]}, "geo_point_2d": [-38.0718104539, 144.365052552], "objectid": 26}, "geometry": {"type": "Point", "coordinates": [144.365052552, -38.0718104539]}, "record_timestamp": "2019-10-14T12:45:21.767+11:00"},{"datasetid": "playgrounds-city-of-greater-geelong", "recordid": "9e7cb49c1953dda0b2318c0238c907da9acbb4b3", "fields": {"pg_name": "Shell Reserve Park", "geo_shape": {"type": "Point", "coordinates": [144.36227083121457, -38.07416868244349]}, "geo_point_2d": [-38.0741686824, 144.362270831], "objectid": 29}, "geometry": {"type": "Point", "coordinates": [144.362270831, -38.0741686824]}, "record_timestamp": "2019-10-14T12:45:21.767+11:00"},{"datasetid": "playgrounds-city-of-greater-geelong", "recordid": "57df860f0f00488fc64c895d26e81f03e4f3de8b", "fields": {"pg_name": "Howitt Reserve", "geo_shape": {"type": "Point", "coordinates": [144.37395664713495, -38.069530951118935]}, "geo_point_2d": [-38.0695309511, 144.373956647], "objectid": 30}, "geometry": {"type": "Point", "coordinates": [144.373956647, -38.0695309511]}, "record_timestamp": "2019-10-14T12:45:21.767+11:00"},{"datasetid": "playgrounds-city-of-greater-geelong", "recordid": "28db9472c68ee2d49e8cf5b83c9d56c4d4c402bb", "fields": {"pg_name": "Detroit Reserve", "geo_shape": {"type": "Point", "coordinates": [144.36242131715204, -38.07740891567491]}, "geo_point_2d": [-38.0774089157, 144.362421317], "objectid": 33}, "geometry": {"type": "Point", "coordinates": [144.362421317, -38.0774089157]}, "record_timestamp": "2019-10-14T12:45:21.767+11:00"},{"datasetid": "playgrounds-city-of-greater-geelong", "recordid": "81a7c878f2c7856e55f7b23ee0f744d347676cd3", "fields": {"pg_name": "Cloverdale CC", "geo_shape": {"type": "Point", "coordinates": [144.3436115587269, -38.0731753841146]}, "geo_point_2d": [-38.0731753841, 144.343611559], "objectid": 35}, "geometry": {"type": "Point", "coordinates": [144.343611559, -38.0731753841]}, "record_timestamp": "2019-10-14T12:45:21.767+11:00"},{"datasetid": "playgrounds-city-of-greater-geelong", "recordid": "5049a6b7ccf9b6d1350bec5bc6aac8990bff23bf", "fields": {"pg_name": "Evans Reserve", "geo_shape": {"type": "Point", "coordinates": [144.3498341968261, -38.090952680403845]}, "geo_point_2d": [-38.0909526804, 144.349834197], "objectid": 41}, "geometry": {"type": "Point", "coordinates": [144.349834197, -38.0909526804]}, "record_timestamp": "2019-10-14T12:45:21.767+11:00"},{"datasetid": "playgrounds-city-of-greater-geelong", "recordid": "f32af2893fdb29771c7d0b3e8248cdd9686dfe19", "fields": {"pg_name": "Maynooth Reserve", "geo_shape": {"type": "Point", "coordinates": [144.34124776951222, -38.08481934454198]}, "geo_point_2d": [-38.0848193445, 144.34124777], "objectid": 42}, "geometry": {"type": "Point", "coordinates": [144.34124777, -38.0848193445]}, "record_timestamp": "2019-10-14T12:45:21.767+11:00"},{"datasetid": "playgrounds-city-of-greater-geelong", "recordid": "f0a64a2b545f95a1b627ea0f897e83f598f425f3", "fields": {"pg_name": "Jamina Reserve", "geo_shape": {"type": "Point", "coordinates": [144.33704467773254, -38.08652319242677]}, "geo_point_2d": [-38.0865231924, 144.337044678], "objectid": 43}, "geometry": {"type": "Point", "coordinates": [144.337044678, -38.0865231924]}, "record_timestamp": "2019-10-14T12:45:21.767+11:00"},{"datasetid": "playgrounds-city-of-greater-geelong", "recordid": "8261cf84184800c6091c21527e2749006b550d93", "fields": {"pg_name": "Fountn Friendship", "geo_shape": {"type": "Point", "coordinates": [144.3378936589052, -38.0917334995933]}, "geo_point_2d": [-38.0917334996, 144.337893659], "objectid": 45}, "geometry": {"type": "Point", "coordinates": [144.337893659, -38.0917334996]}, "record_timestamp": "2019-10-14T12:45:21.767+11:00"},{"datasetid": "playgrounds-city-of-greater-geelong", "recordid": "87f4543d430668a2515263682976679e7329491d", "fields": {"pg_name": "Myers Reserve", "geo_shape": {"type": "Point", "coordinates": [144.31917272848443, -38.09385401137287]}, "geo_point_2d": [-38.0938540114, 144.319172728], "objectid": 50}, "geometry": {"type": "Point", "coordinates": [144.319172728, -38.0938540114]}, "record_timestamp": "2019-10-14T12:45:21.767+11:00"},{"datasetid": "playgrounds-city-of-greater-geelong", "recordid": "9fa73e95ad6c49ab88e40f58114028b00cc74da6", "fields": {"pg_name": "Castle Reserve", "geo_shape": {"type": "Point", "coordinates": [144.34041683061162, -38.1159987802023]}, "geo_point_2d": [-38.1159987802, 144.340416831], "objectid": 55}, "geometry": {"type": "Point", "coordinates": [144.340416831, -38.1159987802]}, "record_timestamp": "2019-10-14T12:45:21.767+11:00"},{"datasetid": "playgrounds-city-of-greater-geelong", "recordid": "c28562a723511dac827372d8b430b450f6952d28", "fields": {"pg_name": "Osbourne Avenue Reserve", "geo_shape": {"type": "Point", "coordinates": [144.34403302863083, -38.11516324884604]}, "geo_point_2d": [-38.1151632488, 144.344033029], "objectid": 56}, "geometry": {"type": "Point", "coordinates": [144.344033029, -38.1151632488]}, "record_timestamp": "2019-10-14T12:45:21.767+11:00"},{"datasetid": "playgrounds-city-of-greater-geelong", "recordid": "b9fb05b2f81db027af139d974a944d29f04d2682", "fields": {"pg_name": "Milton Reserve", "geo_shape": {"type": "Point", "coordinates": [144.33244372152598, -38.11601982648196]}, "geo_point_2d": [-38.1160198265, 144.332443722], "objectid": 57}, "geometry": {"type": "Point", "coordinates": [144.332443722, -38.1160198265]}, "record_timestamp": "2019-10-14T12:45:21.767+11:00"},{"datasetid": "playgrounds-city-of-greater-geelong", "recordid": "d2563f2f6e409345367cabf80e3d13279ddbb1d6", "fields": {"pg_name": "Haines Reserve", "geo_shape": {"type": "Point", "coordinates": [144.32188983239132, -38.11569764628194]}, "geo_point_2d": [-38.1156976463, 144.321889832], "objectid": 60}, "geometry": {"type": "Point", "coordinates": [144.321889832, -38.1156976463]}, "record_timestamp": "2019-10-14T12:45:21.767+11:00"},{"datasetid": "playgrounds-city-of-greater-geelong", "recordid": "0a16fc2588e2cdea5b66a06f307cc9334db08ac8", "fields": {"pg_name": "Hamlyn Heights Skate Park", "geo_shape": {"type": "Point", "coordinates": [144.32875152017795, -38.122901007493915]}, "geo_point_2d": [-38.1229010075, 144.32875152], "objectid": 63}, "geometry": {"type": "Point", "coordinates": [144.32875152, -38.1229010075]}, "record_timestamp": "2019-10-14T12:45:21.767+11:00"},{"datasetid": "playgrounds-city-of-greater-geelong", "recordid": "a690bd82bd37be967a0d1ee4e67a21365da134ba", "fields": {"pg_name": "Kevin Kirby Reserve", "geo_shape": {"type": "Point", "coordinates": [144.32028098366925, -38.135568426814395]}, "geo_point_2d": [-38.1355684268, 144.320280984], "objectid": 70}, "geometry": {"type": "Point", "coordinates": [144.320280984, -38.1355684268]}, "record_timestamp": "2019-10-14T12:45:21.767+11:00"},{"datasetid": "playgrounds-city-of-greater-geelong", "recordid": "cbc0b35016ddd874abd4f5178b4cb59c312c282e", "fields": {"pg_name": "Rippleside Park", "geo_shape": {"type": "Point", "coordinates": [144.35440569187796, -38.12705234255197]}, "geo_point_2d": [-38.1270523426, 144.354405692], "objectid": 81}, "geometry": {"type": "Point", "coordinates": [144.354405692, -38.1270523426]}, "record_timestamp": "2019-10-14T12:45:21.767+11:00"},{"datasetid": "playgrounds-city-of-greater-geelong", "recordid": "7290ec761c121097889116e60d8e2c3a832679c8", "fields": {"pg_name": "Rippleside North-West", "geo_shape": {"type": "Point", "coordinates": [144.35682261893805, -38.126749362470854]}, "geo_point_2d": [-38.1267493625, 144.356822619], "objectid": 82}, "geometry": {"type": "Point", "coordinates": [144.356822619, -38.1267493625]}, "record_timestamp": "2019-10-14T12:45:21.767+11:00"},{"datasetid": "playgrounds-city-of-greater-geelong", "recordid": "c409bb3026dd4e01f50b056fbe5d82f930e28890", "fields": {"pg_name": "St Helens Reserve", "geo_shape": {"type": "Point", "coordinates": [144.35950226602856, -38.12217024350857]}, "geo_point_2d": [-38.1221702435, 144.359502266], "objectid": 83}, "geometry": {"type": "Point", "coordinates": [144.359502266, -38.1221702435]}, "record_timestamp": "2019-10-14T12:45:21.767+11:00"},{"datasetid": "playgrounds-city-of-greater-geelong", "recordid": "56190d4870752802a303009e4e563787becd013a", "fields": {"pg_name": "Western Beach", "geo_shape": {"type": "Point", "coordinates": [144.3609500171624, -38.14289344044916]}, "geo_point_2d": [-38.1428934404, 144.360950017], "objectid": 90}, "geometry": {"type": "Point", "coordinates": [144.360950017, -38.1428934404]}, "record_timestamp": "2019-10-14T12:45:21.767+11:00"},{"datasetid": "playgrounds-city-of-greater-geelong", "recordid": "03e4861859aef46ef906e3c3d0f1c6d1b3e0c711", "fields": {"pg_name": "Eastn Beach Reserve", "geo_shape": {"type": "Point", "coordinates": [144.37421686130475, -38.14665999912525]}, "geo_point_2d": [-38.1466599991, 144.374216861], "objectid": 92}, "geometry": {"type": "Point", "coordinates": [144.374216861, -38.1466599991]}, "record_timestamp": "2019-10-14T12:45:21.767+11:00"},{"datasetid": "playgrounds-city-of-greater-geelong", "recordid": "d6c4f85d026dd1e2e2c5a1050fb1f604b03b370f", "fields": {"pg_name": "Eastern Park South", "geo_shape": {"type": "Point", "coordinates": [144.37812311817774, -38.153831374288856]}, "geo_point_2d": [-38.1538313743, 144.378123118], "objectid": 94}, "geometry": {"type": "Point", "coordinates": [144.378123118, -38.1538313743]}, "record_timestamp": "2019-10-14T12:45:21.767+11:00"},{"datasetid": "playgrounds-city-of-greater-geelong", "recordid": "b25ea8e4c9c3e07e1b6ebaa91b80ae7c46917141", "fields": {"pg_name": "George Trickey", "geo_shape": {"type": "Point", "coordinates": [144.36156304191306, -38.16118985898565]}, "geo_point_2d": [-38.161189859, 144.361563042], "objectid": 98}, "geometry": {"type": "Point", "coordinates": [144.361563042, -38.161189859]}, "record_timestamp": "2019-10-14T12:45:21.767+11:00"},{"datasetid": "playgrounds-city-of-greater-geelong", "recordid": "9921cf36b174b03010b3bb9ed6028f54b498b1f8", "fields": {"pg_name": "Landy Field-Fitness Circuit", "geo_shape": {"type": "Point", "coordinates": [144.3594618120201, -38.16694819707988]}, "geo_point_2d": [-38.1669481971, 144.359461812], "objectid": 100}, "geometry": {"type": "Point", "coordinates": [144.359461812, -38.1669481971]}, "record_timestamp": "2019-10-14T12:45:21.767+11:00"},{"datasetid": "playgrounds-city-of-greater-geelong", "recordid": "d590797547014e31e08f45c92e5ac8854e3fee1f", "fields": {"pg_name": "Kyle Reserve", "geo_shape": {"type": "Point", "coordinates": [144.342073698526, -38.16857332787506]}, "geo_point_2d": [-38.1685733279, 144.342073699], "objectid": 108}, "geometry": {"type": "Point", "coordinates": [144.342073699, -38.1685733279]}, "record_timestamp": "2019-10-14T12:45:21.767+11:00"},{"datasetid": "playgrounds-city-of-greater-geelong", "recordid": "5ac2caf2464b5c8819e45de0694286287f60fb86", "fields": {"pg_name": "Barwon Valley Park - Fitness", "geo_shape": {"type": "Point", "coordinates": [144.33874345644625, -38.16598365784647]}, "geo_point_2d": [-38.1659836578, 144.338743456], "objectid": 111}, "geometry": {"type": "Point", "coordinates": [144.338743456, -38.1659836578]}, "record_timestamp": "2019-10-14T12:45:21.767+11:00"},{"datasetid": "playgrounds-city-of-greater-geelong", "recordid": "9c395d9a338a7994bdfdced7c41a8c04fee14024", "fields": {"pg_name": "Sladen Park", "geo_shape": {"type": "Point", "coordinates": [144.3465362471596, -38.15744841610642]}, "geo_point_2d": [-38.1574484161, 144.346536247], "objectid": 115}, "geometry": {"type": "Point", "coordinates": [144.346536247, -38.1574484161]}, "record_timestamp": "2019-10-14T12:45:21.767+11:00"},{"datasetid": "playgrounds-city-of-greater-geelong", "recordid": "be56ff2723b7c3c28ba04adfbcbf0b4330bd5d76", "fields": {"pg_name": "Churchill Reserve", "geo_shape": {"type": "Point", "coordinates": [144.33268957546366, -38.14522214864309]}, "geo_point_2d": [-38.1452221486, 144.332689575], "objectid": 118}, "geometry": {"type": "Point", "coordinates": [144.332689575, -38.1452221486]}, "record_timestamp": "2019-10-14T12:45:21.767+11:00"},{"datasetid": "playgrounds-city-of-greater-geelong", "recordid": "7579f52c8b97ebfb2283928fe1678f38b42e05d0", "fields": {"pg_name": "Fairmont Reserve", "geo_shape": {"type": "Point", "coordinates": [144.33028905471267, -38.156115544889204]}, "geo_point_2d": [-38.1561155449, 144.330289055], "objectid": 120}, "geometry": {"type": "Point", "coordinates": [144.330289055, -38.1561155449]}, "record_timestamp": "2019-10-14T12:45:21.767+11:00"},{"datasetid": "playgrounds-city-of-greater-geelong", "recordid": "bac0f3f2d9e97a71fc13b42b16f46ab4af8fa337", "fields": {"pg_name": "Cara Reserve", "geo_shape": {"type": "Point", "coordinates": [144.32290051965688, -38.166986322885464]}, "geo_point_2d": [-38.1669863229, 144.32290052], "objectid": 127}, "geometry": {"type": "Point", "coordinates": [144.32290052, -38.1669863229]}, "record_timestamp": "2019-10-14T12:45:21.767+11:00"},{"datasetid": "playgrounds-city-of-greater-geelong", "recordid": "54b1acb389b99628421b12fd884d2014a620c5dd", "fields": {"pg_name": "Highton Reserve", "geo_shape": {"type": "Point", "coordinates": [144.32077572036815, -38.17155450622338]}, "geo_point_2d": [-38.1715545062, 144.32077572], "objectid": 129}, "geometry": {"type": "Point", "coordinates": [144.32077572, -38.1715545062]}, "record_timestamp": "2019-10-14T12:45:21.767+11:00"},{"datasetid": "playgrounds-city-of-greater-geelong", "recordid": "4a692d6d10fd8955467566f685dfb4ca1a18c76a", "fields": {"pg_name": "Kyeema Ave Reserve", "geo_shape": {"type": "Point", "coordinates": [144.30795349768906, -38.16626520663706]}, "geo_point_2d": [-38.1662652066, 144.307953498], "objectid": 131}, "geometry": {"type": "Point", "coordinates": [144.307953498, -38.1662652066]}, "record_timestamp": "2019-10-14T12:45:21.767+11:00"},{"datasetid": "playgrounds-city-of-greater-geelong", "recordid": "273ae3f9ff9ba788c096f9092777127b7d6b9177", "fields": {"pg_name": "Highview Estate Reserve", "geo_shape": {"type": "Point", "coordinates": [144.29923937668397, -38.1658803837352]}, "geo_point_2d": [-38.1658803837, 144.299239377], "objectid": 132}, "geometry": {"type": "Point", "coordinates": [144.299239377, -38.1658803837]}, "record_timestamp": "2019-10-14T12:45:21.767+11:00"},{"datasetid": "playgrounds-city-of-greater-geelong", "recordid": "4d25b606c8e317be67f30d379b40dda402308636", "fields": {"pg_name": "Ceres Reserve", "geo_shape": {"type": "Point", "coordinates": [144.27104337369707, -38.17302472457634]}, "geo_point_2d": [-38.1730247246, 144.271043374], "objectid": 133}, "geometry": {"type": "Point", "coordinates": [144.271043374, -38.1730247246]}, "record_timestamp": "2019-10-14T12:45:21.767+11:00"},{"datasetid": "playgrounds-city-of-greater-geelong", "recordid": "d47ed790bf895d8578ff2ce00336339fb38170d4", "fields": {"pg_name": "Drewan Park", "geo_shape": {"type": "Point", "coordinates": [144.29941263635433, -38.17341336972025]}, "geo_point_2d": [-38.1734133697, 144.299412636], "objectid": 134}, "geometry": {"type": "Point", "coordinates": [144.299412636, -38.1734133697]}, "record_timestamp": "2019-10-14T12:45:21.767+11:00"},{"datasetid": "playgrounds-city-of-greater-geelong", "recordid": "2dd20f88045fd5f8f09aac3a80821b87c941c877", "fields": {"pg_name": "Cedmar Reserve", "geo_shape": {"type": "Point", "coordinates": [144.31350667153262, -38.17864719015106]}, "geo_point_2d": [-38.1786471902, 144.313506672], "objectid": 137}, "geometry": {"type": "Point", "coordinates": [144.313506672, -38.1786471902]}, "record_timestamp": "2019-10-14T12:45:21.767+11:00"},{"datasetid": "playgrounds-city-of-greater-geelong", "recordid": "17296de41ac7de276da7ebad3c8f6af96aa8d424", "fields": {"pg_name": "Iona Reserve", "geo_shape": {"type": "Point", "coordinates": [144.32474053652294, -38.1771416664156]}, "geo_point_2d": [-38.1771416664, 144.324740537], "objectid": 139}, "geometry": {"type": "Point", "coordinates": [144.324740537, -38.1771416664]}, "record_timestamp": "2019-10-14T12:45:21.767+11:00"},{"datasetid": "playgrounds-city-of-greater-geelong", "recordid": "6bd252eb3883351e7465937677a316cf74d888f3", "fields": {"pg_name": "Stork Reserve", "geo_shape": {"type": "Point", "coordinates": [144.34288859828916, -38.18039561051067]}, "geo_point_2d": [-38.1803956105, 144.342888598], "objectid": 144}, "geometry": {"type": "Point", "coordinates": [144.342888598, -38.1803956105]}, "record_timestamp": "2019-10-14T12:45:21.767+11:00"},{"datasetid": "playgrounds-city-of-greater-geelong", "recordid": "39407cc3850ab04a53c9ecd687b8f353ccb47921", "fields": {"pg_name": "Kidman Reserve", "geo_shape": {"type": "Point", "coordinates": [144.3346494142311, -38.18660770976158]}, "geo_point_2d": [-38.1866077098, 144.334649414], "objectid": 146}, "geometry": {"type": "Point", "coordinates": [144.334649414, -38.1866077098]}, "record_timestamp": "2019-10-14T12:45:21.767+11:00"},{"datasetid": "playgrounds-city-of-greater-geelong", "recordid": "598a6cbfc0cb6298a7014e9296204cfcc4f83be1", "fields": {"pg_name": "Brahman Reserve", "geo_shape": {"type": "Point", "coordinates": [144.33066191194112, -38.18998506004622]}, "geo_point_2d": [-38.18998506, 144.330661912], "objectid": 147}, "geometry": {"type": "Point", "coordinates": [144.330661912, -38.18998506]}, "record_timestamp": "2019-10-14T12:45:21.767+11:00"},{"datasetid": "playgrounds-city-of-greater-geelong", "recordid": "03a321ea022eb116664463d66f6fb9ee49a2af39", "fields": {"pg_name": "Waurn Ponds Park", "geo_shape": {"type": "Point", "coordinates": [144.3415765560427, -38.19078973978238]}, "geo_point_2d": [-38.1907897398, 144.341576556], "objectid": 149}, "geometry": {"type": "Point", "coordinates": [144.341576556, -38.1907897398]}, "record_timestamp": "2019-10-14T12:45:21.767+11:00"},{"datasetid": "playgrounds-city-of-greater-geelong", "recordid": "38624ae78266a30fc38ca06166cbb566411b29af", "fields": {"pg_name": "Waurn Pds Tennis Club", "geo_shape": {"type": "Point", "coordinates": [144.27274804455664, -38.20929708825989]}, "geo_point_2d": [-38.2092970883, 144.272748045], "objectid": 150}, "geometry": {"type": "Point", "coordinates": [144.272748045, -38.2092970883]}, "record_timestamp": "2019-10-14T12:45:21.767+11:00"},{"datasetid": "playgrounds-city-of-greater-geelong", "recordid": "2beaa257bf239f4ed9b771088ce7bf0942c02088", "fields": {"pg_name": "Waurn Ponds Skate", "geo_shape": {"type": "Point", "coordinates": [144.3212351093384, -38.1986035759436]}, "geo_point_2d": [-38.1986035759, 144.321235109], "objectid": 151}, "geometry": {"type": "Point", "coordinates": [144.321235109, -38.1986035759]}, "record_timestamp": "2019-10-14T12:45:21.767+11:00"},