[{"datasetid": "community-halls-city-of-greater-geelong", "recordid": "36cdd1549fbf5d68954fc5db877c81464cb89fc7", "fields": {"name": "ANAKIE/STAUGHTON VALE HALL", "geo_point_2d": [-37.8808990293, 144.262079493], "long": "144.262079493296", "geo_shape": {"type": "Point", "coordinates": [144.26207949329637, -37.88089902928422]}, "lat": "-37.8808990292842", "cogg": "Y"}, "geometry": {"type": "Point", "coordinates": [144.262079493, -37.8808990293]}, "record_timestamp": "2019-09-18T11:34:41.882+10:00"},{"datasetid": "community-halls-city-of-greater-geelong", "recordid": "d267c7b61f7be136e80c3a845e029847ca6c4266", "fields": {"name": "CENTENARY HALL", "geo_point_2d": [-38.0843451363, 144.356379424], "long": "144.356379423688", "geo_shape": {"type": "Point", "coordinates": [144.3563794236884, -38.084345136348205]}, "lat": "-38.0843451363482", "cogg": "Y"}, "geometry": {"type": "Point", "coordinates": [144.356379424, -38.0843451363]}, "record_timestamp": "2019-09-18T11:34:41.882+10:00"},{"datasetid": "community-halls-city-of-greater-geelong", "recordid": "e4651b27ca981bb4aa6a2f8d27b765630eb2e9ab", "fields": {"name": "DRYSDALE PUBLIC HALL", "geo_point_2d": [-38.1741533385, 144.57011428], "long": "144.570114280017", "geo_shape": {"type": "Point", "coordinates": [144.57011428001712, -38.174153338544784]}, "lat": "-38.1741533385448", "cogg": "Y"}, "geometry": {"type": "Point", "coordinates": [144.57011428, -38.1741533385]}, "record_timestamp": "2019-09-18T11:34:41.882+10:00"},{"datasetid": "community-halls-city-of-greater-geelong", "recordid": "b295e1b9dead40d8d5592195993cc6d6e39de685", "fields": {"name": "LARA HALL", "geo_point_2d": [-38.0220260132, 144.397500153], "long": "144.397500152934", "geo_shape": {"type": "Point", "coordinates": [144.39750015293362, -38.02202601317405]}, "lat": "-38.022026013174", "cogg": "Y"}, "geometry": {"type": "Point", "coordinates": [144.397500153, -38.0220260132]}, "record_timestamp": "2019-09-18T11:34:41.882+10:00"},{"datasetid": "community-halls-city-of-greater-geelong", "recordid": "ee9f6253d2fdfe2ace52c7e3d557791257a57e56", "fields": {"name": "ST LEONARDS REC RESERVE HALL", "geo_point_2d": [-38.1756609756, 144.710591846], "long": "144.710591846026", "geo_shape": {"type": "Point", "coordinates": [144.71059184602558, -38.17566097559057]}, "lat": "-38.1756609755906", "cogg": "Y"}, "geometry": {"type": "Point", "coordinates": [144.710591846, -38.1756609756]}, "record_timestamp": "2019-09-18T11:34:41.882+10:00"},{"datasetid": "community-halls-city-of-greater-geelong", "recordid": "8b5021db0d5789980129dc414758140b4adcf00b", "fields": {"name": "PORTARLINGTON PARKS HALL", "geo_point_2d": [-38.114806162, 144.655195145], "long": "144.655195144501", "geo_shape": {"type": "Point", "coordinates": [144.65519514450054, -38.11480616203176]}, "lat": "-38.1148061620318", "cogg": "N"}, "geometry": {"type": "Point", "coordinates": [144.655195145, -38.114806162]}, "record_timestamp": "2019-09-18T11:34:41.882+10:00"},{"datasetid": "community-halls-city-of-greater-geelong", "recordid": "e32d2b400f2887c5d95591ccc8fbbb280fa2f9af", "fields": {"name": "WAURN PONDS HALL", "geo_point_2d": [-38.2081982545, 144.277478591], "long": "144.277478590976", "geo_shape": {"type": "Point", "coordinates": [144.27747859097607, -38.208198254533976]}, "lat": "-38.208198254534", "cogg": "N"}, "geometry": {"type": "Point", "coordinates": [144.277478591, -38.2081982545]}, "record_timestamp": "2019-09-18T11:34:41.882+10:00"},{"datasetid": "community-halls-city-of-greater-geelong", "recordid": "1e9bb81642ff21ae59d8a90eaf730c7074259877", "fields": {"name": "SOUTH BARWON CIVIC CENTRE", "geo_point_2d": [-38.1896509828, 144.325641091], "long": "144.32564109093", "geo_shape": {"type": "Point", "coordinates": [144.32564109092962, -38.189650982783974]}, "lat": "-38.189650982784", "cogg": "Y"}, "geometry": {"type": "Point", "coordinates": [144.325641091, -38.1896509828]}, "record_timestamp": "2019-09-18T11:34:41.882+10:00"},{"datasetid": "community-halls-city-of-greater-geelong", "recordid": "210366b79fe0c454f00dd34c9197dcd2a2044b04", "fields": {"name": "LITTLE RIVER MECHANICS INSTITUTE", "geo_point_2d": [-37.9643214529, 144.498405045], "long": "144.498405045161", "geo_shape": {"type": "Point", "coordinates": [144.49840504516052, -37.96432145290089]}, "lat": "-37.9643214529009", "cogg": "N"}, "geometry": {"type": "Point", "coordinates": [144.498405045, -37.9643214529]}, "record_timestamp": "2019-09-18T11:34:41.882+10:00"},{"datasetid": "community-halls-city-of-greater-geelong", "recordid": "c50006011c88c38adb25cd8dfb85264dad22857e", "fields": {"name": "ANAKIE COMMUNITY HOUSE", "geo_point_2d": [-37.912938778, 144.255220317], "long": "144.255220317341", "geo_shape": {"type": "Point", "coordinates": [144.25522031734053, -37.91293877804715]}, "lat": "-37.9129387780472", "cogg": "Y"}, "geometry": {"type": "Point", "coordinates": [144.255220317, -37.912938778]}, "record_timestamp": "2019-09-18T11:34:41.882+10:00"},{"datasetid": "community-halls-city-of-greater-geelong", "recordid": "0bef28a4a65a28865e60ab4f63fdd36e10006ab1", "fields": {"name": "COBBIN FARM", "geo_point_2d": [-38.1927501868, 144.329762091], "long": "144.329762090626", "geo_shape": {"type": "Point", "coordinates": [144.3297620906261, -38.192750186832406]}, "lat": "-38.1927501868324", "cogg": "Y"}, "geometry": {"type": "Point", "coordinates": [144.329762091, -38.1927501868]}, "record_timestamp": "2019-09-18T11:34:41.882+10:00"},{"datasetid": "community-halls-city-of-greater-geelong", "recordid": "c4b70b23791a07fe6dfb6bd074db658041e4efa8", "fields": {"name": "GROVEDALE RESERVE HALL", "geo_point_2d": [-38.2055405484, 144.342120134], "long": "144.342120133917", "geo_shape": {"type": "Point", "coordinates": [144.34212013391692, -38.20554054840393]}, "lat": "-38.2055405484039", "cogg": "Y"}, "geometry": {"type": "Point", "coordinates": [144.342120134, -38.2055405484]}, "record_timestamp": "2019-09-18T11:34:41.882+10:00"},{"datasetid": "community-halls-city-of-greater-geelong", "recordid": "1dfa49b7de75d740c6de663b50346cb8a55ded52", "fields": {"name": "MT DUNEED HALL", "geo_point_2d": [-38.2476872602, 144.327821625], "long": "144.327821625265", "geo_shape": {"type": "Point", "coordinates": [144.32782162526527, -38.247687260171794]}, "lat": "-38.2476872601718", "cogg": "Y"}, "geometry": {"type": "Point", "coordinates": [144.327821625, -38.2476872602]}, "record_timestamp": "2019-09-18T11:34:41.882+10:00"},{"datasetid": "community-halls-city-of-greater-geelong", "recordid": "d0de32b9595203d2df29d47c4655732df4b02068", "fields": {"name": "OCEAN GROVE HALL F BLL RMS RSL", "geo_point_2d": [-38.2655568854, 144.52922056], "long": "144.52922056024", "geo_shape": {"type": "Point", "coordinates": [144.52922056024013, -38.265556885438]}, "lat": "-38.265556885438", "cogg": "Y"}, "geometry": {"type": "Point", "coordinates": [144.52922056, -38.2655568854]}, "record_timestamp": "2019-09-18T11:34:41.882+10:00"},{"datasetid": "community-halls-city-of-greater-geelong", "recordid": "8b6df37c04272dec5e3e26a03f3331465a4433f3", "fields": {"name": "WANDANA HEIGHTS HALL", "geo_point_2d": [-38.173232216, 144.308149854], "long": "144.308149854258", "geo_shape": {"type": "Point", "coordinates": [144.30814985425832, -38.17323221601322]}, "lat": "-38.1732322160132", "cogg": "Y"}, "geometry": {"type": "Point", "coordinates": [144.308149854, -38.173232216]}, "record_timestamp": "2019-09-18T11:34:41.882+10:00"},{"datasetid": "community-halls-city-of-greater-geelong", "recordid": "b34c7b3daf586b10f784e198a457a272743e8516", "fields": {"name": "DRYSDALE RSL HALL", "geo_point_2d": [-38.1741155313, 144.570958997], "long": "144.570958996949", "geo_shape": {"type": "Point", "coordinates": [144.57095899694917, -38.17411553126093]}, "lat": "-38.1741155312609", "cogg": "N"}, "geometry": {"type": "Point", "coordinates": [144.570958997, -38.1741155313]}, "record_timestamp": "2019-09-18T11:34:41.882+10:00"},{"datasetid": "community-halls-city-of-greater-geelong", "recordid": "feb3558e983a16dfe4c6d6eb72e4d56d1cd21b20", "fields": {"name": "ROSLYN RD COMMUNITY FACILITY", "geo_point_2d": [-38.1718326104, 144.316584572], "long": "144.316584572043", "geo_shape": {"type": "Point", "coordinates": [144.31658457204264, -38.171832610354194]}, "lat": "-38.1718326103542", "cogg": "Y"}, "geometry": {"type": "Point", "coordinates": [144.316584572, -38.1718326104]}, "record_timestamp": "2019-09-18T11:34:41.882+10:00"},{"datasetid": "community-halls-city-of-greater-geelong", "recordid": "00da6004079fa4896369e9c97c67aa3eb542e2a5", "fields": {"name": "HIGHTON RECERATION CENTRE", "geo_point_2d": [-38.1708327635, 144.320371526], "long": "144.320371526105", "geo_shape": {"type": "Point", "coordinates": [144.32037152610465, -38.170832763522064]}, "lat": "-38.1708327635221", "cogg": "Y"}, "geometry": {"type": "Point", "coordinates": [144.320371526, -38.1708327635]}, "record_timestamp": "2019-09-18T11:34:41.882+10:00"},{"datasetid": "community-halls-city-of-greater-geelong", "recordid": "4ed9a37a1059bebca3b6f362deeb000f01274589", "fields": {"name": "ST LEONARDS COMMUNITY SPACE", "geo_point_2d": [-38.1710092193, 144.717040736], "long": "144.717040735812", "geo_shape": {"type": "Point", "coordinates": [144.71704073581165, -38.17100921933329]}, "lat": "-38.1710092193333", "cogg": "N"}, "geometry": {"type": "Point", "coordinates": [144.717040736, -38.1710092193]}, "record_timestamp": "2019-09-18T11:34:41.882+10:00"},{"datasetid": "community-halls-city-of-greater-geelong", "recordid": "d24c54b84350fb8d5f962eaeac182a0dd540b88a", "fields": {"name": "FORT", "geo_point_2d": [-38.0840438252, 144.360386567], "long": "144.360386566852", "geo_shape": {"type": "Point", "coordinates": [144.36038656685204, -38.084043825171484]}, "lat": "-38.0840438251715", "cogg": "Y"}, "geometry": {"type": "Point", "coordinates": [144.360386567, -38.0840438252]}, "record_timestamp": "2019-09-18T11:34:41.882+10:00"},{"datasetid": "community-halls-city-of-greater-geelong", "recordid": "50e1205f15228629112db3bfd8549032af99af9d", "fields": {"name": "BARWON HEADS COMMUNITY HALL", "geo_point_2d": [-38.2787027883, 144.491690629], "long": "144.491690629428", "geo_shape": {"type": "Point", "coordinates": [144.4916906294275, -38.27870278828732]}, "lat": "-38.2787027882873", "cogg": "N"}, "geometry": {"type": "Point", "coordinates": [144.491690629, -38.2787027883]}, "record_timestamp": "2019-09-18T11:34:41.882+10:00"},{"datasetid": "community-halls-city-of-greater-geelong", "recordid": "edd8dd17960a42fdf59bd45cd50375e0c451174e", "fields": {"name": "BATESFORD HALL", "geo_point_2d": [-38.0894661654, 144.285829688], "long": "144.285829687578", "geo_shape": {"type": "Point", "coordinates": [144.28582968757755, -38.08946616542193]}, "lat": "-38.0894661654219", "cogg": "Y"}, "geometry": {"type": "Point", "coordinates": [144.285829688, -38.0894661654]}, "record_timestamp": "2019-09-18T11:34:41.882+10:00"},{"datasetid": "community-halls-city-of-greater-geelong", "recordid": "a128cec2ade87d0eecace6965ddc000d10966881", "fields": {"name": "BELMONT PARK PAVILLION", "geo_point_2d": [-38.166166606, 144.351122635], "long": "144.351122635384", "geo_shape": {"type": "Point", "coordinates": [144.35112263538403, -38.16616660598506]}, "lat": "-38.1661666059851", "cogg": "Y"}, "geometry": {"type": "Point", "coordinates": [144.351122635, -38.166166606]}, "record_timestamp": "2019-09-18T11:34:41.882+10:00"},{"datasetid": "community-halls-city-of-greater-geelong", "recordid": "94963c4702bc480103538346cc7e31a118b5a922", "fields": {"name": "COBRADAH", "geo_point_2d": [-38.1032249736, 144.329375776], "long": "144.32937577647", "geo_shape": {"type": "Point", "coordinates": [144.32937577647039, -38.10322497356451]}, "lat": "-38.1032249735645", "cogg": "Y"}, "geometry": {"type": "Point", "coordinates": [144.329375776, -38.1032249736]}, "record_timestamp": "2019-09-18T11:34:41.882+10:00"},{"datasetid": "community-halls-city-of-greater-geelong", "recordid": "708c6ff6e71cd4f5473a6869359c7240cffb0beb", "fields": {"name": "PETTIT PARK HALL", "geo_point_2d": [-38.1028993688, 144.329134845], "long": "144.329134845188", "geo_shape": {"type": "Point", "coordinates": [144.3291348451885, -38.10289936884113]}, "lat": "-38.1028993688411", "cogg": "Y"}, "geometry": {"type": "Point", "coordinates": [144.329134845, -38.1028993688]}, "record_timestamp": "2019-09-18T11:34:41.882+10:00"},{"datasetid": "community-halls-city-of-greater-geelong", "recordid": "8eb68b54a42538a705b91be1b158bd61f1a15069", "fields": {"name": "GEELONG WEST TOWN HALL/ P TLT", "geo_point_2d": [-38.1408987231, 144.347507847], "long": "144.347507847063", "geo_shape": {"type": "Point", "coordinates": [144.34750784706327, -38.14089872311362]}, "lat": "-38.1408987231136", "cogg": "Y"}, "geometry": {"type": "Point", "coordinates": [144.347507847, -38.1408987231]}, "record_timestamp": "2019-09-18T11:34:41.882+10:00"},{"datasetid": "community-halls-city-of-greater-geelong", "recordid": "ad4effd553794a5aebc1ad3ec593f5f37d576d64", "fields": {"name": "HENDY STREET HALL", "geo_point_2d": [-38.0720027692, 144.367410302], "long": "144.367410301566", "geo_shape": {"type": "Point", "coordinates": [144.36741030156568, -38.07200276919498]}, "lat": "-38.072002769195", "cogg": "Y"}, "geometry": {"type": "Point", "coordinates": [144.367410302, -38.0720027692]}, "record_timestamp": "2019-09-18T11:34:41.882+10:00"},{"datasetid": "community-halls-city-of-greater-geelong", "recordid": "9f1bf2fad3fd58ad9ad4fc9bd2c09f361fb5bf14", "fields": {"name": "LARA RSL", "geo_point_2d": [-38.0241978928, 144.412869052], "long": "144.412869051808", "geo_shape": {"type": "Point", "coordinates": [144.4128690518076, -38.024197892772435]}, "lat": "-38.0241978927724", "cogg": "Y"}, "geometry": {"type": "Point", "coordinates": [144.412869052, -38.0241978928]}, "record_timestamp": "2019-09-18T11:34:41.882+10:00"},{"datasetid": "community-halls-city-of-greater-geelong", "recordid": "1fad6b448ac9240d6d09a5ed8d6c1e8d8c0000d0", "fields": {"name": "MARCUS HILL HALL", "geo_point_2d": [-38.2418115475, 144.571394984], "long": "144.571394983648", "geo_shape": {"type": "Point", "coordinates": [144.57139498364774, -38.24181154747812]}, "lat": "-38.2418115474781", "cogg": "Y"}, "geometry": {"type": "Point", "coordinates": [144.571394984, -38.2418115475]}, "record_timestamp": "2019-09-18T11:34:41.882+10:00"},{"datasetid": "community-halls-city-of-greater-geelong", "recordid": "459e2ec15e3f9a89890032ed45154c5cbb5899df", "fields": {"name": "SPARROW PARK HALL", "geo_point_2d": [-38.1410709069, 144.341919701], "long": "144.341919701363", "geo_shape": {"type": "Point", "coordinates": [144.34191970136294, -38.14107090685796]}, "lat": "-38.141070906858", "cogg": "Y"}, "geometry": {"type": "Point", "coordinates": [144.341919701, -38.1410709069]}, "record_timestamp": "2019-09-18T11:34:41.882+10:00"},{"datasetid": "community-halls-city-of-greater-geelong", "recordid": "9f88f4b97539f1a3e00977ace2d2226c4374dac9", "fields": {"name": "QUEENSCLIFF AND DISTRICT NEIGHBOURHOOD HOUSE", "geo_point_2d": [-38.2704353809, 144.656827901], "long": "144.656827900616", "geo_shape": {"type": "Point", "coordinates": [144.65682790061555, -38.27043538090621]}, "lat": "-38.2704353809062", "cogg": "N"}, "geometry": {"type": "Point", "coordinates": [144.656827901, -38.2704353809]}, "record_timestamp": "2019-09-18T11:34:41.882+10:00"},{"datasetid": "community-halls-city-of-greater-geelong", "recordid": "c1617ea8e59f17d0571838beae50e51854858051", "fields": {"name": "LEOPOLD HALL", "geo_point_2d": [-38.1905454442, 144.471028788], "long": "144.471028787557", "geo_shape": {"type": "Point", "coordinates": [144.47102878755672, -38.19054544422623]}, "lat": "-38.1905454442262", "cogg": "N"}, "geometry": {"type": "Point", "coordinates": [144.471028788, -38.1905454442]}, "record_timestamp": "2019-09-18T11:34:41.882+10:00"},{"datasetid": "community-halls-city-of-greater-geelong", "recordid": "c0ed5f00cff9f5ec1dc6cab88e494142cdc55368", "fields": {"name": "ST LEONARDS MEMORIAL HALL", "geo_point_2d": [-38.1724930735, 144.715072423], "long": "144.71507242342", "geo_shape": {"type": "Point", "coordinates": [144.71507242342003, -38.17249307347653]}, "lat": "-38.1724930734765", "cogg": "N"}, "geometry": {"type": "Point", "coordinates": [144.715072423, -38.1724930735]}, "record_timestamp": "2019-09-18T11:34:41.882+10:00"}]